<?xml version="1.0" encoding="UTF-8"?>
<kml xmlns="http://www.opengis.net/kml/2.2">
  <Document>
    <name>Rastplatser Norge v.0.1</name>
    <Style id="icon-503-DB4436-normal">
      <IconStyle>
        <color>ff3644db</color>
        <scale>1.1</scale>
        <Icon>
          <href>https://www.gstatic.com/mapspro/images/stock/503-wht-blank_maps.png</href>
        </Icon>
        <hotSpot x="16" xunits="pixels" y="32" yunits="insetPixels"/>
      </IconStyle>
      <LabelStyle>
        <scale>0</scale>
      </LabelStyle>
    </Style>
    <Style id="icon-503-DB4436-highlight">
      <IconStyle>
        <color>ff3644db</color>
        <scale>1.1</scale>
        <Icon>
          <href>https://www.gstatic.com/mapspro/images/stock/503-wht-blank_maps.png</href>
        </Icon>
        <hotSpot x="16" xunits="pixels" y="32" yunits="insetPixels"/>
      </IconStyle>
      <LabelStyle>
        <scale>1.1</scale>
      </LabelStyle>
    </Style>
    <StyleMap id="icon-503-DB4436">
      <Pair>
        <key>normal</key>
        <styleUrl>#icon-503-DB4436-normal</styleUrl>
      </Pair>
      <Pair>
        <key>highlight</key>
        <styleUrl>#icon-503-DB4436-highlight</styleUrl>
      </Pair>
    </StyleMap>
    <Style id="icon-503-DB4436-nodesc-normal">
      <IconStyle>
        <color>ff3644db</color>
        <scale>1.1</scale>
        <Icon>
          <href>https://www.gstatic.com/mapspro/images/stock/503-wht-blank_maps.png</href>
        </Icon>
        <hotSpot x="16" xunits="pixels" y="32" yunits="insetPixels"/>
      </IconStyle>
      <LabelStyle>
        <scale>0</scale>
      </LabelStyle>
      <BalloonStyle>
        <text><![CDATA[<h3>$[name]</h3>]]></text>
      </BalloonStyle>
    </Style>
    <Style id="icon-503-DB4436-nodesc-highlight">
      <IconStyle>
        <color>ff3644db</color>
        <scale>1.1</scale>
        <Icon>
          <href>https://www.gstatic.com/mapspro/images/stock/503-wht-blank_maps.png</href>
        </Icon>
        <hotSpot x="16" xunits="pixels" y="32" yunits="insetPixels"/>
      </IconStyle>
      <LabelStyle>
        <scale>1.1</scale>
      </LabelStyle>
      <BalloonStyle>
        <text><![CDATA[<h3>$[name]</h3>]]></text>
      </BalloonStyle>
    </Style>
    <StyleMap id="icon-503-DB4436-nodesc">
      <Pair>
        <key>normal</key>
        <styleUrl>#icon-503-DB4436-nodesc-normal</styleUrl>
      </Pair>
      <Pair>
        <key>highlight</key>
        <styleUrl>#icon-503-DB4436-nodesc-highlight</styleUrl>
      </Pair>
    </StyleMap>
    <Placemark>
      <name>Rasteplass 1 Indre Kjerringdal</name>
      <description>9540, Alta, Alta, Nor*Kautokeino *20 NOR *9520</description>
      <styleUrl>#icon-503-DB4436</styleUrl>
      <Point>
        <coordinates>
          22.451266,70.056703,0
        </coordinates>
      </Point>
    </Placemark>
    <Placemark>
      <name>Rasteplass 10</name>
      <description>828484, Andøy, Andøy, Nor*Risøyhamn *18 NOR *8484</description>
      <styleUrl>#icon-503-DB4436</styleUrl>
      <Point>
        <coordinates>
          15.627472,68.968241,0
        </coordinates>
      </Point>
    </Placemark>
    <Placemark>
      <name>Rasteplass 100 Bjortjønna</name>
      <description>8680 Grane Nor*Namsskogan *17 NOR *7890</description>
      <styleUrl>#icon-503-DB4436</styleUrl>
      <Point>
        <coordinates>
          13.377656,65.212871,0
        </coordinates>
      </Point>
    </Placemark>
    <Placemark>
      <name>Rasteplass 1000 Ljøen</name>
      <description>FV 60 Møre og Romsd.Liten rasteplass.Fast dekke.*Hellesylt *15 NOR *6218</description>
      <styleUrl>#icon-503-DB4436</styleUrl>
      <Point>
        <coordinates>
          6.923457,62.129063,0
        </coordinates>
      </Point>
    </Placemark>
    <Placemark>
      <name>Rasteplass 1001 Nybøen</name>
      <description>FV 60 Møre og Romsd.Liten rasteplassFast dekke.*Hellesylt *15 NOR *6218</description>
      <styleUrl>#icon-503-DB4436</styleUrl>
      <Point>
        <coordinates>
          6.83849,62.084889,0
        </coordinates>
      </Point>
    </Placemark>
    <Placemark>
      <name>Rasteplass 1002 Sveabakkane</name>
      <description>FV 60 Møre og Romsd.WC: NeiLiten rasteplass150m2 fast dekke.*Hellesylt *15 NOR *6218</description>
      <styleUrl>#icon-503-DB4436</styleUrl>
      <Point>
        <coordinates>
          6.836325,62.08221,0
        </coordinates>
      </Point>
    </Placemark>
    <Placemark>
      <name>Rasteplass 1003 Hellesylt FK</name>
      <description>FV 60 Møre og RomsdalFergekai*Hellesylt *15 NOR *6218</description>
      <styleUrl>#icon-503-DB4436</styleUrl>
      <Point>
        <coordinates>
          6.869725,62.086043,0
        </coordinates>
      </Point>
    </Placemark>
    <Placemark>
      <name>Rasteplass 1004 Aurstadelva</name>
      <description>Liten rasteplass.WC:Nei350m2 Grus dekke.Vinterstengt.FV 651 Møre og Romsd.Ligg innerst i Austerfjorden,100m frå fjorden.*Volda *15 NOR *6100</description>
      <styleUrl>#icon-503-DB4436</styleUrl>
      <Point>
        <coordinates>
          6.274323,62.08628,0
        </coordinates>
      </Point>
    </Placemark>
    <Placemark>
      <name>Rasteplass 1005 Bjørkedalsvatnet Nord</name>
      <description>E39Liten Rasteplass.30moh.Ligg i nordenden avBjørkedalsvatnet.*Folkestad *15 NOR *6120</description>
      <styleUrl>#icon-503-DB4436</styleUrl>
      <Point>
        <coordinates>
          6.039621,62.025231,30
        </coordinates>
      </Point>
    </Placemark>
    <Placemark>
      <name>Rasteplass 1006 Bjørkedalen</name>
      <description>E39 Liten rasteplass.Sørenden av Bjørkedalsvatnet.Møre og Romsd.*Kjølsdalen *14 NOR *6776</description>
      <styleUrl>#icon-503-DB4436</styleUrl>
      <Point>
        <coordinates>
          6.059072,61.99775,0
        </coordinates>
      </Point>
    </Placemark>
    <Placemark>
      <name>Rasteplass 1007 Stigedalsvatnet</name>
      <description>E39 Møre og Romsd.Liten rasteplass.Fast dekke.Sv enden av Stigedalsvatnet.170moh*Kjølsdalen *14 NOR *6776</description>
      <styleUrl>#icon-503-DB4436</styleUrl>
      <Point>
        <coordinates>
          6.110346,61.97582,170
        </coordinates>
      </Point>
    </Placemark>
    <Placemark>
      <name>Rasteplass 1008 Osen</name>
      <description>E39 Sogn og Fjord.  Liten rasteplass 360m2 fast dekke.Ligg ved nord ende av Storesætervatnet 280moh*Lote *14 NOR *6778</description>
      <styleUrl>#icon-503-DB4436</styleUrl>
      <Point>
        <coordinates>
          6.134271,61.947965,280
        </coordinates>
      </Point>
    </Placemark>
    <Placemark>
      <name>Rasteplass 1009 Tua</name>
      <description>E39 Liten rasteplass Sogn og Fjord.Syd for Storesætervatnet, ca 150m. Like ved Stigedalshytta ca 120m.280moh*Kjølsdalen *14 NOR *6776</description>
      <styleUrl>#icon-503-DB4436</styleUrl>
      <Point>
        <coordinates>
          6.137204,61.939703,280
        </coordinates>
      </Point>
    </Placemark>
    <Placemark>
      <name>Rasteplass 101</name>
      <description>E6 8680 Grane Nor*Trofors *18 NOR *8680</description>
      <styleUrl>#icon-503-DB4436</styleUrl>
      <Point>
        <coordinates>
          13.385081,65.407448,0
        </coordinates>
      </Point>
    </Placemark>
    <Placemark>
      <name>Rasteplass 1010 Øye</name>
      <description>Øye FV 665Liten rasteplassFast dekke*Sæbø *15 NOR *6165</description>
      <styleUrl>#icon-503-DB4436</styleUrl>
      <Point>
        <coordinates>
          6.653764,62.194554,0
        </coordinates>
      </Point>
    </Placemark>
    <Placemark>
      <name>Rasteplass 1011 Tunndalen</name>
      <description>Rv 3 TynsetHedemarkLiten Rasteplass*Kvikne *04 NOR *2512</description>
      <styleUrl>#icon-503-DB4436</styleUrl>
      <Point>
        <coordinates>
          10.660871,62.358967,0
        </coordinates>
      </Point>
    </Placemark>
    <Placemark>
      <name>Rasteplass 1012 Paureng</name>
      <description>Fv30 TynsetLiten RasteplassHedemark*Tynset *04 NOR *2500</description>
      <styleUrl>#icon-503-DB4436</styleUrl>
      <Point>
        <coordinates>
          10.84197,62.318119,0
        </coordinates>
      </Point>
    </Placemark>
    <Placemark>
      <name>Rasteplass 1013 Einabu</name>
      <description>FV29 TynsetLiten rasteplassHedemarkNedre Røsta*Alvdal *04 NOR *2560</description>
      <styleUrl>#icon-503-DB4436</styleUrl>
      <Point>
        <coordinates>
          10.380387,62.199687,0
        </coordinates>
      </Point>
    </Placemark>
    <Placemark>
      <name>Rasteplass 1014 Kokarstein</name>
      <description>FV650Liten rasteplass800m2 fast dekke1600m2 total.Mat/wc*Stranda *15 NOR *6200</description>
      <styleUrl>#icon-503-DB4436</styleUrl>
      <Point>
        <coordinates>
          6.922991,62.433655,0
        </coordinates>
      </Point>
    </Placemark>
    <Placemark>
      <name>Rasteplass 1015 Furneset FK</name>
      <description>E39 Furneset FergekaiMøre og RomsdalFK Furneset - Molde*Vestnes *15 NOR *6390</description>
      <styleUrl>#icon-503-DB4436</styleUrl>
      <Point>
        <coordinates>
          7.08499,62.651603,0
        </coordinates>
      </Point>
    </Placemark>
    <Placemark>
      <name>Rasteplass 1016 Molde fergekai</name>
      <description>E39 Fergekai MoldeMolde - Furneset / Seterneset.Møre og RomsdalFK - Furneset / SeternesetMolde *15 NOR *6422</description>
      <styleUrl>#icon-503-DB4436</styleUrl>
      <Point>
        <coordinates>
          7.168745,62.736807,0
        </coordinates>
      </Point>
    </Placemark>
    <Placemark>
      <name>Rasteplass 1017 Seterneset FK</name>
      <description>413 Fergekai. ferge til MoldeMore og Romsd.Fergekai Seterneset - Molde*Måndalen *15 NOR *6386</description>
      <styleUrl>#icon-503-DB4436</styleUrl>
      <Point>
        <coordinates>
          7.303148,62.675094,0
        </coordinates>
      </Point>
    </Placemark>
    <Placemark>
      <name>Rasteplass 1018 Haugøya</name>
      <description>FV 669Møre og RomsdalLiten rasteplass 140m2For Personbil*Kvenvær *16 NOR *7243</description>
      <styleUrl>#icon-503-DB4436</styleUrl>
      <Point>
        <coordinates>
          7.991343,63.484848,0
        </coordinates>
      </Point>
    </Placemark>
    <Placemark>
      <name>Rasteplass 1019 Bjørga</name>
      <description>FV 64Møre og RomsdalVed RomsadalsfjordenLiten rasteplass 900m2Grus dekke*Veblungsnes *15 NOR *6310</description>
      <styleUrl>#icon-503-DB4436</styleUrl>
      <Point>
        <coordinates>
          7.619604,62.568123,0
        </coordinates>
      </Point>
    </Placemark>
    <Placemark>
      <name>Rasteplass 102 Åseng</name>
      <description>E6 8680 Grane Nor*Trofors *18 NOR *8680</description>
      <styleUrl>#icon-503-DB4436</styleUrl>
      <Point>
        <coordinates>
          13.396754,65.428476,0
        </coordinates>
      </Point>
    </Placemark>
    <Placemark>
      <name>Rasteplass 1020 Markanes</name>
      <description>FV 64 MarkanesMøre og RomsdalLiten rasteplass 150m2Isfjorden*Åndalsnes *15 NOR *6300</description>
      <styleUrl>#icon-503-DB4436</styleUrl>
      <Point>
        <coordinates>
          7.694959,62.581152,0
        </coordinates>
      </Point>
    </Placemark>
    <Placemark>
      <name>Rasteplass 1021 Nesstranda</name>
      <description>FV 64 NesstrandaMøre og RomsdalLiten rasteplass 3000m2Isfjorden Åndalsnes*Åndalsnes *15 NOR *6300</description>
      <styleUrl>#icon-503-DB4436</styleUrl>
      <Point>
        <coordinates>
          7.754794,62.568219,0
        </coordinates>
      </Point>
    </Placemark>
    <Placemark>
      <name>Rasteplass 1022 Midøya</name>
      <description>Fv668 MidøyaMøre og romsdalLiten rasteplass 240m2Fast dekke*Midsund *15 NOR *6475</description>
      <styleUrl>#icon-503-DB4436</styleUrl>
      <Point>
        <coordinates>
          6.637989,62.676023,0
        </coordinates>
      </Point>
    </Placemark>
    <Placemark>
      <name>Rasteplass 1023 Nord Heggdal</name>
      <description>FV 202 MidsundMøre og RomsdalLiten rasteplass*Aukra *15 NOR *6480</description>
      <styleUrl>#icon-503-DB4436</styleUrl>
      <Point>
        <coordinates>
          6.900161,62.700047,0
        </coordinates>
      </Point>
    </Placemark>
    <Placemark>
      <name>Rasteplass 1024 FK Fauske - Magerholm</name>
      <description>FV60Fergekai Fauske - MagerholmFergekai*Ikornnes *15 NOR *6222</description>
      <styleUrl>#icon-503-DB4436</styleUrl>
      <Point>
        <coordinates>
          6.547788,62.410114,0
        </coordinates>
      </Point>
    </Placemark>
    <Placemark>
      <name>Rasteplass 1025 FK  Magerholm - Fauske</name>
      <description>FV 60FegekaiFergekai*Straumgjerde *15 NOR *6220</description>
      <styleUrl>#icon-503-DB4436</styleUrl>
      <Point>
        <coordinates>
          6.497077,62.432257,0
        </coordinates>
      </Point>
    </Placemark>
    <Placemark>
      <name>Rasteplass 1026 Skodjestraumen</name>
      <description>FV 661 Møre og Romsd. StraumenLiten rasteplass13 plassarVinterstengt*Tennfjord *15 NOR *6264</description>
      <styleUrl>#icon-503-DB4436</styleUrl>
      <Point>
        <coordinates>
          6.622228,62.504531,0
        </coordinates>
      </Point>
    </Placemark>
    <Placemark>
      <name>Rasteplass 1027 Vindsneset</name>
      <description>FV 127 GodøyaMøre og RomsdalLiten rasteplass*Valderøya *15 NOR *6050</description>
      <styleUrl>#icon-503-DB4436</styleUrl>
      <Point>
        <coordinates>
          5.988245,62.484337,0
        </coordinates>
      </Point>
    </Placemark>
    <Placemark>
      <name>Rasteplass 1029 Høghjellen</name>
      <description>Ev 39 Møre og RomsdalLite RasteplassFast dekke. Vinterstengt*Eiksund *15 NOR *6068</description>
      <styleUrl>#icon-503-DB4436</styleUrl>
      <Point>
        <coordinates>
          6.037822,62.284855,0
        </coordinates>
      </Point>
    </Placemark>
    <Placemark>
      <name>Rasteplass 103</name>
      <description>E6 8680  Grane Nor*Trofors *18 NOR *8680</description>
      <styleUrl>#icon-503-DB4436</styleUrl>
      <Point>
        <coordinates>
          13.331866,65.284367,0
        </coordinates>
      </Point>
    </Placemark>
    <Placemark>
      <name>Rasteplass 1030 Kvammen</name>
      <description>Fv 35 Møre og RomsdalLiten rasteplass*Ulsteinvik *15 NOR *6065</description>
      <styleUrl>#icon-503-DB4436</styleUrl>
      <Point>
        <coordinates>
          5.97272,62.311699,0
        </coordinates>
      </Point>
    </Placemark>
    <Placemark>
      <name>Rasteplass 1031 Garsholhaugen</name>
      <description>Fv 61 Møre og RomsdalLiten rasteplass350 m2 totalt*Ulsteinvik *15 NOR *6065</description>
      <styleUrl>#icon-503-DB4436</styleUrl>
      <Point>
        <coordinates>
          5.857278,62.308406,0
        </coordinates>
      </Point>
    </Placemark>
    <Placemark>
      <name>Rasteplass 1032 Drageskaret</name>
      <description>FV 61 Møre og RomsdalGurskøyaLiten rasteplass*Larsnes *15 NOR *6084</description>
      <styleUrl>#icon-503-DB4436</styleUrl>
      <Point>
        <coordinates>
          5.58755,62.214597,0
        </coordinates>
      </Point>
    </Placemark>
    <Placemark>
      <name>Rasteplass 1033 Dragseidet</name>
      <description>FV 632 Leikanger Sogn og Fjord.OlavkrossenLiten rasteplassParkering små 5Parkering  stor 2*Selje *14 NOR *6740</description>
      <styleUrl>#icon-503-DB4436</styleUrl>
      <Point>
        <coordinates>
          5.296461,62.112218,0
        </coordinates>
      </Point>
    </Placemark>
    <Placemark>
      <name>Rasteplass 1034 FK Husevågøy - Vågsøy</name>
      <description>FV 604                       Sogn og FjordaneFergekai Husevågøy - VågsøyFast dekke 3000m2*Deknepollen *14 NOR *6718</description>
      <styleUrl>#icon-503-DB4436</styleUrl>
      <Point>
        <coordinates>
          5.113393,61.90268,0
        </coordinates>
      </Point>
    </Placemark>
    <Placemark>
      <name>Rasteplass 1035 Oldseide</name>
      <description>FV 616Sogn og FjordaneLiten rasteplassParkering 11 småFast dekke*Husevåg *14 NOR *6716</description>
      <styleUrl>#icon-503-DB4436</styleUrl>
      <Point>
        <coordinates>
          5.078344,61.878991,0
        </coordinates>
      </Point>
    </Placemark>
    <Placemark>
      <name>Rasteplass 1036 Kuli</name>
      <description>FV 669Hovedrasteplass*Lesund *15 NOR *6698</description>
      <styleUrl>#icon-503-DB4436</styleUrl>
      <Point>
        <coordinates>
          8.101681,63.301299,0
        </coordinates>
      </Point>
    </Placemark>
    <Placemark>
      <name>Rasteplass 1037 Tømmervåg FK</name>
      <description>FV 680Møre og Roms.Fergekai*Kvisvik *15 NOR *6674</description>
      <styleUrl>#icon-503-DB4436</styleUrl>
      <Point>
        <coordinates>
          7.953935,63.152718,0
        </coordinates>
      </Point>
    </Placemark>
    <Placemark>
      <name>Rasteplass 1038 Rjåneshamna FK</name>
      <description>KV 7067 RjåneshamnaMøre og RomsdalFergekaiFergekaiØrsta Ørsta NOR 6160</description>
      <styleUrl>#icon-503-DB4436</styleUrl>
      <Point>
        <coordinates>
          5.971584,62.247891,0
        </coordinates>
      </Point>
    </Placemark>
    <Placemark>
      <name>Rasteplass 1038 Vikseter</name>
      <description>Fv 191Møre og Roms.Liten rasteplass700m2 totaltGrus dekke*Sunndalsøra *15 NOR *6601</description>
      <styleUrl>#icon-503-DB4436</styleUrl>
      <Point>
        <coordinates>
          8.183753,62.541692,0
        </coordinates>
      </Point>
    </Placemark>
    <Placemark>
      <name>Rasteplass 1039 Bøla</name>
      <description>Fv 763N TrøndeladLiten rasteplass440m2 totalt*Snåsa *17 NOR *7760</description>
      <styleUrl>#icon-503-DB4436</styleUrl>
      <Point>
        <coordinates>
          11.946412,64.146335,0
        </coordinates>
      </Point>
    </Placemark>
    <Placemark>
      <name>Rasteplass 104 Store Svenningsvatn</name>
      <description>E6 8680 Grane Nor*Trofors *18 NOR *8680</description>
      <styleUrl>#icon-503-DB4436</styleUrl>
      <Point>
        <coordinates>
          13.376927,65.32093,0
        </coordinates>
      </Point>
    </Placemark>
    <Placemark>
      <name>Rasteplass 1040 FK Åfarnes</name>
      <description>FV 64Møre og RomsdalFergekai*Åfarnes *15 NOR *6360</description>
      <styleUrl>#icon-503-DB4436</styleUrl>
      <Point>
        <coordinates>
          7.505165,62.664,0
        </coordinates>
      </Point>
    </Placemark>
    <Placemark>
      <name>Rasteplass 1041 Flydalsjuvet (Nedre)</name>
      <description>FV63 Møre og RomsdalLiten rasteplass 2 stk*Geiranger *15 NOR *6216</description>
      <styleUrl>#icon-503-DB4436</styleUrl>
      <Point>
        <coordinates>
          7.2231,62.090594,0
        </coordinates>
      </Point>
    </Placemark>
    <Placemark>
      <name>Rasteplass 1042 FK Geiranger</name>
      <description>FV 63Møre og RomsdalFergekai Geiranger*Geiranger *15 NOR *6216</description>
      <styleUrl>#icon-503-DB4436</styleUrl>
      <Point>
        <coordinates>
          7.202788,62.10354,0
        </coordinates>
      </Point>
    </Placemark>
    <Placemark>
      <name>Rasteplass 1043 Surnadalen</name>
      <description>FV 65 Møre og RomsdalHovedrasteplass*Surnadal *15 NOR *6650</description>
      <styleUrl>#icon-503-DB4436</styleUrl>
      <Point>
        <coordinates>
          9.048002,63.010857,0
        </coordinates>
      </Point>
    </Placemark>
    <Placemark>
      <name>Rasteplass 1044 Fjellåsen</name>
      <description>FV56 Møre og RomsdalLiten rasteplass*Vågland *15 NOR *6683</description>
      <styleUrl>#icon-503-DB4436</styleUrl>
      <Point>
        <coordinates>
          8.41748,63.070385,0
        </coordinates>
      </Point>
    </Placemark>
    <Placemark>
      <name>Rasteplass 1045 Glønavatnet</name>
      <description>FV65 Møre og RomsdalLiten rasteplass*Surna *15 NOR *6652</description>
      <styleUrl>#icon-503-DB4436</styleUrl>
      <Point>
        <coordinates>
          8.651261,63.013773,0
        </coordinates>
      </Point>
    </Placemark>
    <Placemark>
      <name>Rasteplass 1046 Eikesdal</name>
      <description>FV191 Møre og RomsdalLiten rasteplass 240m2 totalt*Bjorli *05 NOR *2669</description>
      <styleUrl>#icon-503-DB4436</styleUrl>
      <Point>
        <coordinates>
          8.179923,62.479651,0
        </coordinates>
      </Point>
    </Placemark>
    <Placemark>
      <name>Rasteplass 1047 Sør Heggdal</name>
      <description>FV202 Møre og RomsdalOtrøyaAnna rasteplass600m2 tot*Rekdal *15 NOR *6395</description>
      <styleUrl>#icon-503-DB4436</styleUrl>
      <Point>
        <coordinates>
          6.761133,62.681144,0
        </coordinates>
      </Point>
    </Placemark>
    <Placemark>
      <name>Rasteplass 1048 Leira</name>
      <description>FV680 LeiraMøre og RomsdalLiten rasteplass*Kvisvik *15 NOR *6674</description>
      <styleUrl>#icon-503-DB4436</styleUrl>
      <Point>
        <coordinates>
          8.025954,63.199864,0
        </coordinates>
      </Point>
    </Placemark>
    <Placemark>
      <name>Rasteplass 1049 Øvre Bjørk</name>
      <description>FV 191 Møre og RomsdalLiten rasteplass 360m2*Sunndalsøra *15 NOR *6601</description>
      <styleUrl>#icon-503-DB4436</styleUrl>
      <Point>
        <coordinates>
          8.170565,62.510505,0
        </coordinates>
      </Point>
    </Placemark>
    <Placemark>
      <name>Rasteplass 105</name>
      <description>E6 8680 Grane Nor*Trofors *18 NOR *8680</description>
      <styleUrl>#icon-503-DB4436</styleUrl>
      <Point>
        <coordinates>
          13.363372,65.376159,0
        </coordinates>
      </Point>
    </Placemark>
    <Placemark>
      <name>Rasteplass 1050 Siksjøen</name>
      <description>RV  28 Siksjøen vedFemundenLiten rasteplass*Os I Østerdalen *04 NOR *2550</description>
      <styleUrl>#icon-503-DB4436</styleUrl>
      <Point>
        <coordinates>
          11.672445,62.311217,0
        </coordinates>
      </Point>
    </Placemark>
    <Placemark>
      <name>Rasteplass 1051 Fokstua</name>
      <description>E6*Dombås *05 NOR *2660</description>
      <styleUrl>#icon-503-DB4436</styleUrl>
      <Point>
        <coordinates>
          9.288961,62.113578,0
        </coordinates>
      </Point>
    </Placemark>
    <Placemark>
      <name>Rasteplass 1052 Fokstua Sør 2</name>
      <description>E6*Dombås *05 NOR *2660</description>
      <styleUrl>#icon-503-DB4436</styleUrl>
      <Point>
        <coordinates>
          9.267594,62.107816,0
        </coordinates>
      </Point>
    </Placemark>
    <Placemark>
      <name>Rasteplass 1053 Fokstua Sør 3</name>
      <description>E6*Dombås *05 NOR *2660</description>
      <styleUrl>#icon-503-DB4436</styleUrl>
      <Point>
        <coordinates>
          9.253757,62.103835,0
        </coordinates>
      </Point>
    </Placemark>
    <Placemark>
      <name>Rasteplass 1054 Kjerran</name>
      <description>FV 221Liten rasteplass*Engerdal *04 NOR *2440</description>
      <styleUrl>#icon-503-DB4436</styleUrl>
      <Point>
        <coordinates>
          12.14342,62.08077,0
        </coordinates>
      </Point>
    </Placemark>
    <Placemark>
      <name>Rasteplass 1055 Sorksjøen</name>
      <description>FV 654Anna rasteplass*Engerdal *04 NOR *2440</description>
      <styleUrl>#icon-503-DB4436</styleUrl>
      <Point>
        <coordinates>
          11.999185,61.984583,0
        </coordinates>
      </Point>
    </Placemark>
    <Placemark>
      <name>Rasteplass 1056 Elvbrua</name>
      <description>Fv217Liten rasteplassVinterstengtFast dekke*Engerdal *04 NOR *2440</description>
      <styleUrl>#icon-503-DB4436</styleUrl>
      <Point>
        <coordinates>
          11.631174,61.773242,0
        </coordinates>
      </Point>
    </Placemark>
    <Placemark>
      <name>Rasteplass 1057 Engersjøen</name>
      <description>FV26HedemarkLiten rasteplass*Engerdal *04 NOR *2440</description>
      <styleUrl>#icon-503-DB4436</styleUrl>
      <Point>
        <coordinates>
          12.053621,61.570936,0
        </coordinates>
      </Point>
    </Placemark>
    <Placemark>
      <name>Rasteplass 1058 Engar</name>
      <description>FV26HedemarkLiten rasteplass*Jordet *04 NOR *2430</description>
      <styleUrl>#icon-503-DB4436</styleUrl>
      <Point>
        <coordinates>
          12.099175,61.508298,0
        </coordinates>
      </Point>
    </Placemark>
    <Placemark>
      <name>Rasteplass 1059 Gravbakken</name>
      <description>FV26HedemarkLiten rasteplass*Jordet *04 NOR *2430</description>
      <styleUrl>#icon-503-DB4436</styleUrl>
      <Point>
        <coordinates>
          12.135959,61.467209,0
        </coordinates>
      </Point>
    </Placemark>
    <Placemark>
      <name>Rasteplass 106 Laksforsnesset</name>
      <description>E6 8680 Grane*Trofors *18 NOR *8680</description>
      <styleUrl>#icon-503-DB4436</styleUrl>
      <Point>
        <coordinates>
          13.306866,65.617314,0
        </coordinates>
      </Point>
    </Placemark>
    <Placemark>
      <name>Rasteplass 1060 Knettlia</name>
      <description>FV25HedemarkLiten rasteplass*Nybergsund *04 NOR *2422</description>
      <styleUrl>#icon-503-DB4436</styleUrl>
      <Point>
        <coordinates>
          12.338981,61.262189,0
        </coordinates>
      </Point>
    </Placemark>
    <Placemark>
      <name>Rasteplass 1061 Gjetsjøen</name>
      <description>FV25HedemarkLiten rasteplass*Østby *04 NOR *2423</description>
      <styleUrl>#icon-503-DB4436</styleUrl>
      <Point>
        <coordinates>
          12.461454,61.270278,0
        </coordinates>
      </Point>
    </Placemark>
    <Placemark>
      <name>Rasteplass 1062 Støa</name>
      <description>FV25HedemarkLiten rasteplass*Ljørdalen *04 NOR *2425</description>
      <styleUrl>#icon-503-DB4436</styleUrl>
      <Point>
        <coordinates>
          12.817581,61.260733,0
        </coordinates>
      </Point>
    </Placemark>
    <Placemark>
      <name>Rasteplass 1064 Nordre Osen S</name>
      <description>FV215HedemarkLiten rasteplass*Jordet *04 NOR *2430</description>
      <styleUrl>#icon-503-DB4436</styleUrl>
      <Point>
        <coordinates>
          11.733953,61.311972,0
        </coordinates>
      </Point>
    </Placemark>
    <Placemark>
      <name>Rasteplass 1065 Nordre Osen</name>
      <description>Nordre OsenFV 215HedemarkLiten rasteplass*Jordet *04 NOR *2430</description>
      <styleUrl>#icon-503-DB4436</styleUrl>
      <Point>
        <coordinates>
          11.770802,61.303835,0
        </coordinates>
      </Point>
    </Placemark>
    <Placemark>
      <name>Rasteplass 1066 Storsjøen S</name>
      <description>FV 607Liten rasteplass*Koppang *04 NOR *2480</description>
      <styleUrl>#icon-503-DB4436</styleUrl>
      <Point>
        <coordinates>
          11.2254,61.553237,0
        </coordinates>
      </Point>
    </Placemark>
    <Placemark>
      <name>Rasteplass 1067 Kjemsjøen</name>
      <description>KjemsjøenLiten rasteplass*Koppang *04 NOR *2480</description>
      <styleUrl>#icon-503-DB4436</styleUrl>
      <Point>
        <coordinates>
          11.095206,61.565596,0
        </coordinates>
      </Point>
    </Placemark>
    <Placemark>
      <name>Rasteplass 1068 Frisvegen1</name>
      <description>FriisvegenOpplandLiten rasteplass*Atna *04 NOR *2476</description>
      <styleUrl>#icon-503-DB4436</styleUrl>
      <Point>
        <coordinates>
          10.589231,61.691991,0
        </coordinates>
      </Point>
    </Placemark>
    <Placemark>
      <name>Rasteplass 1069 Frisvegen2</name>
      <description>FriisvegenOpplandLiten rasteplass*Sollia *04 NOR *2477</description>
      <styleUrl>#icon-503-DB4436</styleUrl>
      <Point>
        <coordinates>
          10.526828,61.669475,0
        </coordinates>
      </Point>
    </Placemark>
    <Placemark>
      <name>Rasteplass 107 Vargflågan</name>
      <description>8680 Grane Nor*Trofors *18 NOR *8680</description>
      <styleUrl>#icon-503-DB4436</styleUrl>
      <Point>
        <coordinates>
          13.278308,65.652811,0
        </coordinates>
      </Point>
    </Placemark>
    <Placemark>
      <name>Rasteplass 1070 Friisvegen3</name>
      <description>FrisisvegenOpplandLiten rasteplass*Sollia *04 NOR *2477</description>
      <styleUrl>#icon-503-DB4436</styleUrl>
      <Point>
        <coordinates>
          10.51241,61.666783,0
        </coordinates>
      </Point>
    </Placemark>
    <Placemark>
      <name>Rasteplass 1071 Friisvegen4</name>
      <description>VeiOpplandLiten rasteplass*Sollia *04 NOR *2477</description>
      <styleUrl>#icon-503-DB4436</styleUrl>
      <Point>
        <coordinates>
          10.44532,61.642734,0
        </coordinates>
      </Point>
    </Placemark>
    <Placemark>
      <name>Rasteplass 1072 Friisvegen5</name>
      <description>VeiOpplandLiten rasteplass*Sollia *04 NOR *2477</description>
      <styleUrl>#icon-503-DB4436</styleUrl>
      <Point>
        <coordinates>
          10.431134,61.636793,0
        </coordinates>
      </Point>
    </Placemark>
    <Placemark>
      <name>Rasteplass 1073 Friisvegen6</name>
      <description>VeiOpplandLiten rasteplass*Sollia *04 NOR *2477</description>
      <styleUrl>#icon-503-DB4436</styleUrl>
      <Point>
        <coordinates>
          10.428557,61.635937,0
        </coordinates>
      </Point>
    </Placemark>
    <Placemark>
      <name>Rasteplass 1074 Friisvegen7</name>
      <description>1100 m høydeOpplandLiten rasteplass*Ringebu *05 NOR *2630</description>
      <styleUrl>#icon-503-DB4436</styleUrl>
      <Point>
        <coordinates>
          10.388576,61.618673,1100
        </coordinates>
      </Point>
    </Placemark>
    <Placemark>
      <name>Rasteplass 1075 Friisvegen8</name>
      <description>FriisvegenOpplandLiten rasteplass*Ringebu *05 NOR *2630</description>
      <styleUrl>#icon-503-DB4436</styleUrl>
      <Point>
        <coordinates>
          10.365342,61.61091,0
        </coordinates>
      </Point>
    </Placemark>
    <Placemark>
      <name>Rasteplass 1076 Friisvegen9</name>
      <description>VeiOpplandLiten rasteplass*Ringebu *05 NOR *2630</description>
      <styleUrl>#icon-503-DB4436</styleUrl>
      <Point>
        <coordinates>
          10.332003,61.593009,0
        </coordinates>
      </Point>
    </Placemark>
    <Placemark>
      <name>Rasteplass 1077 Setninga2</name>
      <description>FV 219OpplandLiten rasteplass*Sollia *04 NOR *2477</description>
      <styleUrl>#icon-503-DB4436</styleUrl>
      <Point>
        <coordinates>
          10.241802,61.777519,0
        </coordinates>
      </Point>
    </Placemark>
    <Placemark>
      <name>Rasteplass 1078 Muvatnet N</name>
      <description>FV27Liten rasteplass*Sollia *04 NOR *2477</description>
      <styleUrl>#icon-503-DB4436</styleUrl>
      <Point>
        <coordinates>
          10.167371,61.714496,0
        </coordinates>
      </Point>
    </Placemark>
    <Placemark>
      <name>Rasteplass 1079 Muvatnet S</name>
      <description>FV 27Liten rasteplass*Sollia *04 NOR *2477</description>
      <styleUrl>#icon-503-DB4436</styleUrl>
      <Point>
        <coordinates>
          10.165373,61.71166,0
        </coordinates>
      </Point>
    </Placemark>
    <Placemark>
      <name>Rasteplass 108 Skjerve</name>
      <description>RV 13 5736  GranvinWC jaInformasjon*Granvin *12 NOR *5736</description>
      <styleUrl>#icon-503-DB4436</styleUrl>
      <Point>
        <coordinates>
          6.634026,60.58814,0
        </coordinates>
      </Point>
    </Placemark>
    <Placemark>
      <name>Rasteplass 1080 Bøl</name>
      <description>FV  27Liten rasteplass*Venabygd *05 NOR *2632</description>
      <styleUrl>#icon-503-DB4436</styleUrl>
      <Point>
        <coordinates>
          10.16295,61.702885,0
        </coordinates>
      </Point>
    </Placemark>
    <Placemark>
      <name>Rasteplass 1081</name>
      <description>FV 27Liten rasteplass*Venabygd *05 NOR *2632</description>
      <styleUrl>#icon-503-DB4436</styleUrl>
      <Point>
        <coordinates>
          10.126576,61.68285,0
        </coordinates>
      </Point>
    </Placemark>
    <Placemark>
      <name>Rasteplass 1082</name>
      <description>OpplandFv27Liten rasteplass*Venabygd *05 NOR *2632</description>
      <styleUrl>#icon-503-DB4436</styleUrl>
      <Point>
        <coordinates>
          10.119169,61.658388,0
        </coordinates>
      </Point>
    </Placemark>
    <Placemark>
      <name>Rasteplass 1083</name>
      <description>Oppland Fv27Liten rasteplass*Venabygd *05 NOR *2632</description>
      <styleUrl>#icon-503-DB4436</styleUrl>
      <Point>
        <coordinates>
          10.091908,61.62354,0
        </coordinates>
      </Point>
    </Placemark>
    <Placemark>
      <name>Rasteplass 1084 Tretten  Sør</name>
      <description>E6 OpplandLiten rasteplassØyer Øyer NOR 2635</description>
      <styleUrl>#icon-503-DB4436</styleUrl>
      <Point>
        <coordinates>
          10.283508,61.28896,0
        </coordinates>
      </Point>
    </Placemark>
    <Placemark>
      <name>Rasteplass 1085 Hunderfossen</name>
      <description>E6 OpplandLiten rasteplassØyer Øyer NOR 2636</description>
      <styleUrl>#icon-503-DB4436</styleUrl>
      <Point>
        <coordinates>
          10.444673,61.23107,0
        </coordinates>
      </Point>
    </Placemark>
    <Placemark>
      <name>Rasteplass 1087 Hellerud</name>
      <description>E6 OpplandLiten rasteplassGjøvik Gjøvik NOR 2837</description>
      <styleUrl>#icon-503-DB4436</styleUrl>
      <Point>
        <coordinates>
          10.487661,61.005453,0
        </coordinates>
      </Point>
    </Placemark>
    <Placemark>
      <name>Rasteplass 1088</name>
      <description>RasteplassE69540, Alta, Alta, NORAlta *20 NOR 9540</description>
      <styleUrl>#icon-503-DB4436</styleUrl>
      <Point>
        <coordinates>
          22.984372,70.052797,0
        </coordinates>
      </Point>
    </Placemark>
    <Placemark>
      <name>Rasteplass 1089</name>
      <description>RasteplassE69540, Alta, Alta, NORAlta *20 NOR 9540</description>
      <styleUrl>#icon-503-DB4436</styleUrl>
      <Point>
        <coordinates>
          22.987111,70.091491,0
        </coordinates>
      </Point>
    </Placemark>
    <Placemark>
      <name>Rasteplass 109</name>
      <description>9470 Gratangen  Nor*Hamnvik *19 NOR *9450</description>
      <styleUrl>#icon-503-DB4436</styleUrl>
      <Point>
        <coordinates>
          17.394281,68.728058,0
        </coordinates>
      </Point>
    </Placemark>
    <Placemark>
      <name>Rasteplass 1090</name>
      <description>RasteplassE69540, Alta, Alta, NORAlta *20 NOR 9540</description>
      <styleUrl>#icon-503-DB4436</styleUrl>
      <Point>
        <coordinates>
          22.988005,70.105427,0
        </coordinates>
      </Point>
    </Placemark>
    <Placemark>
      <name>Rasteplass 1091</name>
      <description>RasteplassE1343895, Vinje, Vinje, NORVinje *08 NOR 3895</description>
      <styleUrl>#icon-503-DB4436</styleUrl>
      <Point>
        <coordinates>
          7.629884,59.730502,0
        </coordinates>
      </Point>
    </Placemark>
    <Placemark>
      <name>Rasteplass 1092</name>
      <description>RasteplassOsloveien1815, Askim, Askim, NORAskim *01 NOR 1815</description>
      <styleUrl>#icon-503-DB4436</styleUrl>
      <Point>
        <coordinates>
          11.102408,59.602484,0
        </coordinates>
      </Point>
    </Placemark>
    <Placemark>
      <name>Rasteplass 1093</name>
      <description>RasteplassE165743, Aurland, Aurland, NORAurland *14 NOR 5743</description>
      <styleUrl>#icon-503-DB4436</styleUrl>
      <Point>
        <coordinates>
          7.107851,60.864588,0
        </coordinates>
      </Point>
    </Placemark>
    <Placemark>
      <name>Rasteplass 1094</name>
      <description>Rasteplass1940, Aurskog-Høland, Aurskog-Høland, NORAurskog-Høland *02 NOR 1940</description>
      <styleUrl>#icon-503-DB4436</styleUrl>
      <Point>
        <coordinates>
          11.620523,59.8755,0
        </coordinates>
      </Point>
    </Placemark>
    <Placemark>
      <name>Rasteplass 1095</name>
      <description>Rasteplass2660, Dovre, Dovre, NORDovre *05 NOR 2660</description>
      <styleUrl>#icon-503-DB4436</styleUrl>
      <Point>
        <coordinates>
          9.299728,62.120463,0
        </coordinates>
      </Point>
    </Placemark>
    <Placemark>
      <name>Rasteplass 1096</name>
      <description>Rasteplass3895, Vinje, Vinje, NORVinje *08 NOR 3895</description>
      <styleUrl>#icon-503-DB4436</styleUrl>
      <Point>
        <coordinates>
          7.515448,59.731581,0
        </coordinates>
      </Point>
    </Placemark>
    <Placemark>
      <name>Rasteplass 1097</name>
      <description>Rasteplass156779, Eid, Eid, NOREid *14 NOR 6779</description>
      <styleUrl>#icon-503-DB4436</styleUrl>
      <Point>
        <coordinates>
          6.474354,61.938192,0
        </coordinates>
      </Point>
    </Placemark>
    <Placemark>
      <name>Rasteplass 1098</name>
      <description>RasteplassE1343893, Vinje, Vinje, NORVinje *08 NOR 3893</description>
      <styleUrl>#icon-503-DB4436</styleUrl>
      <Point>
        <coordinates>
          7.807162,59.64834,0
        </coordinates>
      </Point>
    </Placemark>
    <Placemark>
      <name>Rasteplass 1099</name>
      <description>Rasteplass2232, Eidskog, Eidskog, NOREidskog *04 NOR 2232</description>
      <styleUrl>#icon-503-DB4436</styleUrl>
      <Point>
        <coordinates>
          12.031383,59.958489,0
        </coordinates>
      </Point>
    </Placemark>
    <Placemark>
      <name>Rasteplass 11</name>
      <description>4849 Arendal, NorWCInformasjon*Nesgrenda *09 NOR *4934</description>
      <styleUrl>#icon-503-DB4436</styleUrl>
      <Point>
        <coordinates>
          8.854715,58.58132,0
        </coordinates>
      </Point>
    </Placemark>
    <Placemark>
      <name>Rasteplass 110</name>
      <description>9470 Gratangen*Gratangen *19 NOR *9470</description>
      <styleUrl>#icon-503-DB4436</styleUrl>
      <Point>
        <coordinates>
          17.643354,68.618572,0
        </coordinates>
      </Point>
    </Placemark>
    <Placemark>
      <name>Rasteplass 1100</name>
      <description>Rasteplass2443, Engerdal, Engerdal, NOREngerdal *04 NOR 2443</description>
      <styleUrl>#icon-503-DB4436</styleUrl>
      <Point>
        <coordinates>
          12.068201,61.880895,0
        </coordinates>
      </Point>
    </Placemark>
    <Placemark>
      <name>Rasteplass 1101</name>
      <description>Rasteplass6975, Gaular, Gaular, NORGaular *14 NOR 6975</description>
      <styleUrl>#icon-503-DB4436</styleUrl>
      <Point>
        <coordinates>
          5.816214,61.41678,0
        </coordinates>
      </Point>
    </Placemark>
    <Placemark>
      <name>Rasteplass 1102</name>
      <description>RasteplassE1343890, Bøgrend, Vinje, NORBøgrend *08 NOR 3890</description>
      <styleUrl>#icon-503-DB4436</styleUrl>
      <Point>
        <coordinates>
          7.888669,59.614383,0
        </coordinates>
      </Point>
    </Placemark>
    <Placemark>
      <name>Rasteplass 1103</name>
      <description>Rasteplass3531, Hole, Hole, NORHole *06 NOR 3531</description>
      <styleUrl>#icon-503-DB4436</styleUrl>
      <Point>
        <coordinates>
          10.304122,59.988191,0
        </coordinates>
      </Point>
    </Placemark>
    <Placemark>
      <name>Rasteplass 1104 Lundebotn</name>
      <description>Rasteplass6843, Jølster, Jølster, NORJølster *14 NOR 6843</description>
      <styleUrl>#icon-503-DB4436</styleUrl>
      <Point>
        <coordinates>
          6.656676,61.51599,0
        </coordinates>
      </Point>
    </Placemark>
    <Placemark>
      <name>Rasteplass 1105</name>
      <description>Rasteplass939525, Kautokeino, Kautokeino, NORKautokeino * NOR 9525</description>
      <styleUrl>#icon-503-DB4436</styleUrl>
      <Point>
        <coordinates>
          23.251041,68.83057,0
        </coordinates>
      </Point>
    </Placemark>
    <Placemark>
      <name>Rasteplass 1106</name>
      <description>Rasteplass718409, Kvaefjord, Kvaefjord, NORKvaefjord *18 NOR 8409</description>
      <styleUrl>#icon-503-DB4436</styleUrl>
      <Point>
        <coordinates>
          15.764724,68.5295,0
        </coordinates>
      </Point>
    </Placemark>
    <Placemark>
      <name>Rasteplass 1107</name>
      <description>Rasteplass9620, Kvalsund, Kvalsund, NORKvalsund *20 NOR 9620</description>
      <styleUrl>#icon-503-DB4436</styleUrl>
      <Point>
        <coordinates>
          24.357313,70.351387,0
        </coordinates>
      </Point>
    </Placemark>
    <Placemark>
      <name>Rasteplass 1108</name>
      <description>RasteplassE69620, Kvalsund, Kvalsund, NORKvalsund *20 NOR 9620</description>
      <styleUrl>#icon-503-DB4436</styleUrl>
      <Point>
        <coordinates>
          24.115632,70.290138,0
        </coordinates>
      </Point>
    </Placemark>
    <Placemark>
      <name>Rasteplass 1109</name>
      <description>RasteplassE69620, Kvalsund, Kvalsund, NORKvalsund *20 NOR 9620</description>
      <styleUrl>#icon-503-DB4436</styleUrl>
      <Point>
        <coordinates>
          24.448488,70.39566,0
        </coordinates>
      </Point>
    </Placemark>
    <Placemark>
      <name>Rasteplass 111</name>
      <description>9470, Gratangen, Gratangen, Nor*Gratangen *19 NOR *9470</description>
      <styleUrl>#icon-503-DB4436</styleUrl>
      <Point>
        <coordinates>
          17.762602,68.660641,0
        </coordinates>
      </Point>
    </Placemark>
    <Placemark>
      <name>Rasteplass 1110</name>
      <description>Rasteplass3890, Åmot, Vinje, NORÅmot *08 NOR 3890</description>
      <styleUrl>#icon-503-DB4436</styleUrl>
      <Point>
        <coordinates>
          7.987037,59.570492,0
        </coordinates>
      </Point>
    </Placemark>
    <Placemark>
      <name>Rasteplass 1111</name>
      <description>Rasteplass3850, Kviteseid, Kviteseid, NORKviteseid *08 NOR 3850</description>
      <styleUrl>#icon-503-DB4436</styleUrl>
      <Point>
        <coordinates>
          8.406454,59.481298,0
        </coordinates>
      </Point>
    </Placemark>
    <Placemark>
      <name>Rasteplass 1112</name>
      <description>Rasteplass6888, Laerdal, Laerdal, NORLaerdal *14 NOR 6888</description>
      <styleUrl>#icon-503-DB4436</styleUrl>
      <Point>
        <coordinates>
          7.846067,61.079427,0
        </coordinates>
      </Point>
    </Placemark>
    <Placemark>
      <name>Rasteplass 1113</name>
      <description>RasteplassE166888, Laerdal, Laerdal, NORLaerdal *05 NOR 6888</description>
      <styleUrl>#icon-503-DB4436</styleUrl>
      <Point>
        <coordinates>
          8.008009,61.100903,0
        </coordinates>
      </Point>
    </Placemark>
    <Placemark>
      <name>Rasteplass 1114</name>
      <description>RasteplassE1345580, Vindafjord, Vindafjord, NORVindafjord *11 NOR 5580</description>
      <styleUrl>#icon-503-DB4436</styleUrl>
      <Point>
        <coordinates>
          5.864846,59.609666,0
        </coordinates>
      </Point>
    </Placemark>
    <Placemark>
      <name>Rasteplass 1115</name>
      <description>Rasteplass152685, Lom, Lom, NORLom *05 NOR 2685</description>
      <styleUrl>#icon-503-DB4436</styleUrl>
      <Point>
        <coordinates>
          8.859846,61.845895,0
        </coordinates>
      </Point>
    </Placemark>
    <Placemark>
      <name>Rasteplass 1116</name>
      <description>Rasteplass2975, Vang, Vang, NORVang *05 NOR 2975</description>
      <styleUrl>#icon-503-DB4436</styleUrl>
      <Point>
        <coordinates>
          8.711819,61.145453,0
        </coordinates>
      </Point>
    </Placemark>
    <Placemark>
      <name>Rasteplass 1117</name>
      <description>Rasteplass2910, Nord-Aurdal, Nord-Aurdal, NORNord-Aurdal *05 NOR 2910</description>
      <styleUrl>#icon-503-DB4436</styleUrl>
      <Point>
        <coordinates>
          9.50296,60.863439,0
        </coordinates>
      </Point>
    </Placemark>
    <Placemark>
      <name>Rasteplass 1118</name>
      <description>RasteplassE1345763, Odda, Odda, NOROdda *12 NOR 5763</description>
      <styleUrl>#icon-503-DB4436</styleUrl>
      <Point>
        <coordinates>
          6.661432,59.882488,0
        </coordinates>
      </Point>
    </Placemark>
    <Placemark>
      <name>Rasteplass 1119</name>
      <description>RasteplassE1345763, Odda, Odda, NOROdda *12 NOR 5763</description>
      <styleUrl>#icon-503-DB4436</styleUrl>
      <Point>
        <coordinates>
          6.655174,59.886254,0
        </coordinates>
      </Point>
    </Placemark>
    <Placemark>
      <name>Rasteplass 112</name>
      <description>9470, Gratangen, Gratangen, Nor*Gratangen *19 NOR *9470</description>
      <styleUrl>#icon-503-DB4436</styleUrl>
      <Point>
        <coordinates>
          17.780988,68.665331,0
        </coordinates>
      </Point>
    </Placemark>
    <Placemark>
      <name>Rasteplass 1120</name>
      <description>RasteplassE162977, Vang, Vang, NORVang *05 NOR 2977</description>
      <styleUrl>#icon-503-DB4436</styleUrl>
      <Point>
        <coordinates>
          8.359883,61.205607,0
        </coordinates>
      </Point>
    </Placemark>
    <Placemark>
      <name>Rasteplass 1121</name>
      <description>Rasteplass152670, Dale, Sel, NORDale *05 NOR 2670</description>
      <styleUrl>#icon-503-DB4436</styleUrl>
      <Point>
        <coordinates>
          9.499468,61.77398,0
        </coordinates>
      </Point>
    </Placemark>
    <Placemark>
      <name>Rasteplass 1122</name>
      <description>Rasteplass2695, Skjåk, Skjåk, NORSkjåk *15 NOR 2695</description>
      <styleUrl>#icon-503-DB4436</styleUrl>
      <Point>
        <coordinates>
          7.621032,62.015092,0
        </coordinates>
      </Point>
    </Placemark>
    <Placemark>
      <name>Rasteplass 1123</name>
      <description>Rasteplass2693, Skjåk, Skjåk, NORSkjåk *15 NOR 2693</description>
      <styleUrl>#icon-503-DB4436</styleUrl>
      <Point>
        <coordinates>
          7.690546,62.007753,0
        </coordinates>
      </Point>
    </Placemark>
    <Placemark>
      <name>Rasteplass 1124</name>
      <description>RasteplassE62647, Sør-Fron, Sør-Fron, NORSør-Fron *05 NOR 2647</description>
      <styleUrl>#icon-503-DB4436</styleUrl>
      <Point>
        <coordinates>
          9.906207,61.573721,0
        </coordinates>
      </Point>
    </Placemark>
    <Placemark>
      <name>Rasteplass 1125</name>
      <description>Rasteplass2975, Ryfoss, Vang, NORRyfoss *05 NOR 2975</description>
      <styleUrl>#icon-503-DB4436</styleUrl>
      <Point>
        <coordinates>
          8.827479,61.137086,0
        </coordinates>
      </Point>
    </Placemark>
    <Placemark>
      <name>Rasteplass 1126</name>
      <description>Rasteplass7711, Steinkjer, Steinkjer, NORSteinkjer *17 NOR 7711</description>
      <styleUrl>#icon-503-DB4436</styleUrl>
      <Point>
        <coordinates>
          11.430762,63.982812,0
        </coordinates>
      </Point>
    </Placemark>
    <Placemark>
      <name>Rasteplass 1127</name>
      <description>Rasteplass2682, Vågå, Vågå, NORVågå *05 NOR 2682</description>
      <styleUrl>#icon-503-DB4436</styleUrl>
      <Point>
        <coordinates>
          9.27621,61.833217,0
        </coordinates>
      </Point>
    </Placemark>
    <Placemark>
      <name>Rasteplass 1128</name>
      <description>Rasteplass9143, Storfjord, Storfjord, NORStorfjord *19 NOR 9143</description>
      <styleUrl>#icon-503-DB4436</styleUrl>
      <Point>
        <coordinates>
          20.313091,69.45245,0
        </coordinates>
      </Point>
    </Placemark>
    <Placemark>
      <name>Rasteplass 1129</name>
      <description>Rasteplass6798, Stryn, Stryn, NORStryn *15 NOR 6798</description>
      <styleUrl>#icon-503-DB4436</styleUrl>
      <Point>
        <coordinates>
          7.253524,61.963554,0
        </coordinates>
      </Point>
    </Placemark>
    <Placemark>
      <name>Rasteplass 113 Sandølen</name>
      <description>7870 Grong NorN TrøndelLiten rasteplass4000m2 fast dekke.WcSandølen naturresservat på andre side av elva Namsen.*Skorovatn *17 NOR *7893</description>
      <styleUrl>#icon-503-DB4436</styleUrl>
      <Point>
        <coordinates>
          12.969172,64.470804,0
        </coordinates>
      </Point>
    </Placemark>
    <Placemark>
      <name>Rasteplass 1130 Napen</name>
      <description>RV15 Sogn og fjordliten rasteplass600 m2 Oppstillingspl.3 små 1 stor156798, Stryn, Stryn, NORStryn *15 NOR 6798</description>
      <styleUrl>#icon-503-DB4436</styleUrl>
      <Point>
        <coordinates>
          7.246632,61.935448,0
        </coordinates>
      </Point>
    </Placemark>
    <Placemark>
      <name>Rasteplass 1131 Napen3</name>
      <description>RasteplassRV 156798, Stryn, Stryn, NORStryn *15 NOR 6798</description>
      <styleUrl>#icon-503-DB4436</styleUrl>
      <Point>
        <coordinates>
          7.250127,61.936287,0
        </coordinates>
      </Point>
    </Placemark>
    <Placemark>
      <name>Rasteplass 1132</name>
      <description>Rasteplass2682, Vågå, Vågå, NORVågå *05 NOR 2682</description>
      <styleUrl>#icon-503-DB4436</styleUrl>
      <Point>
        <coordinates>
          9.225096,61.850764,0
        </coordinates>
      </Point>
    </Placemark>
    <Placemark>
      <name>Rasteplass 1133</name>
      <description>Rasteplass4887, Grimstad, Grimstad, NORGrimstad *09 NOR 4887</description>
      <styleUrl>#icon-503-DB4436</styleUrl>
      <Point>
        <coordinates>
          8.496306,58.306701,0
        </coordinates>
      </Point>
    </Placemark>
    <Placemark>
      <name>Rasteplass 1134</name>
      <description>Rasteplass4887, Grimstad, Grimstad, NORGrimstad *09 NOR 4887</description>
      <styleUrl>#icon-503-DB4436</styleUrl>
      <Point>
        <coordinates>
          8.473238,58.298868,0
        </coordinates>
      </Point>
    </Placemark>
    <Placemark>
      <name>Rasteplass 1135</name>
      <description>Rasteplass6947, Høyanger, Høyanger, NORHøyanger *14 NOR 6947</description>
      <styleUrl>#icon-503-DB4436</styleUrl>
      <Point>
        <coordinates>
          5.569468,61.120926,0
        </coordinates>
      </Point>
    </Placemark>
    <Placemark>
      <name>Rasteplass 1136</name>
      <description>Rasteplass6947, Høyanger, Høyanger, NORHøyanger *14 NOR 6947</description>
      <styleUrl>#icon-503-DB4436</styleUrl>
      <Point>
        <coordinates>
          5.603898,61.139908,0
        </coordinates>
      </Point>
    </Placemark>
    <Placemark>
      <name>Rasteplass 1137</name>
      <description>Rasteplass8680, Grane, Grane, NORGrane *18 NOR 8680</description>
      <styleUrl>#icon-503-DB4436</styleUrl>
      <Point>
        <coordinates>
          13.378986,65.324663,0
        </coordinates>
      </Point>
    </Placemark>
    <Placemark>
      <name>Rasteplass 1138 Gudbrandsjuvet</name>
      <description>Rasteplass Gudbrandsjuvet6210, Norddal, Norddal, NORNorddal *15 NOR 6210</description>
      <styleUrl>#icon-503-DB4436</styleUrl>
      <Point>
        <coordinates>
          7.469051,62.330512,0
        </coordinates>
      </Point>
    </Placemark>
    <Placemark>
      <name>Rasteplass 1139 Langsjøen</name>
      <description>Rv 26 HedemarkLangsjøenLiten rasteplass*Tolga *04 NOR *2540</description>
      <styleUrl>#icon-503-DB4436</styleUrl>
      <Point>
        <coordinates>
          11.575512,62.186223,0
        </coordinates>
      </Point>
    </Placemark>
    <Placemark>
      <name>Rasteplass 114 Urstadlia</name>
      <description>EV6  7870  Grong Nor1500m2 fast dekke.*Harran *17 NOR *7873</description>
      <styleUrl>#icon-503-DB4436</styleUrl>
      <Point>
        <coordinates>
          12.432496,64.536803,0
        </coordinates>
      </Point>
    </Placemark>
    <Placemark>
      <name>Rasteplass 1140 Kjelkenes FK</name>
      <description>Kjelkenes FergekaiLiten rasteplassOpstillingsplass: 2 store4 små*Bremanger *14 NOR *6727</description>
      <styleUrl>#icon-503-DB4436</styleUrl>
      <Point>
        <coordinates>
          5.155483,61.743937,0
        </coordinates>
      </Point>
    </Placemark>
    <Placemark>
      <name>Rasteplass 1141 Smørhamn FK</name>
      <description>FV 616 S og FSmørhamn fergekaiOpstill.pl. 10 små 2 store*Kalvåg *14 NOR *6729</description>
      <styleUrl>#icon-503-DB4436</styleUrl>
      <Point>
        <coordinates>
          4.946076,61.778741,0
        </coordinates>
      </Point>
    </Placemark>
    <Placemark>
      <name>Rasteplass 1142 Langesjøvatnet</name>
      <description>FV 614 Sogn og Fjord.Liten rasteplassOppstill.pl. 55 små 1 stor*Rugsund *14 NOR *6734</description>
      <styleUrl>#icon-503-DB4436</styleUrl>
      <Point>
        <coordinates>
          5.425472,61.825929,0
        </coordinates>
      </Point>
    </Placemark>
    <Placemark>
      <name>Rasteplass 1143 Magnhildskaret</name>
      <description>FV 614 Sogn og FjordLiten rasteplassOppstillingspl. 4 små*Florø *14 NOR *6900</description>
      <styleUrl>#icon-503-DB4436</styleUrl>
      <Point>
        <coordinates>
          5.19386,61.660159,0
        </coordinates>
      </Point>
    </Placemark>
    <Placemark>
      <name>Rasteplass 1144 Utsikt mot foss</name>
      <description>FV 614 Sogn og FjordLiten rasteplassOppstillingspl: 6 små      2 store*Stavang *14 NOR *6944</description>
      <styleUrl>#icon-503-DB4436</styleUrl>
      <Point>
        <coordinates>
          5.28748,61.640699,0
        </coordinates>
      </Point>
    </Placemark>
    <Placemark>
      <name>Rasteplass 1145 Lote FK</name>
      <description>E39 Sogn og FjordLote fergekai4000m2*Hestenesøyra *14 NOR *6828</description>
      <styleUrl>#icon-503-DB4436</styleUrl>
      <Point>
        <coordinates>
          6.079898,61.863929,0
        </coordinates>
      </Point>
    </Placemark>
    <Placemark>
      <name>Rasteplass 1146 Nor bru</name>
      <description><![CDATA[RV15 og  FV663 S&FLiten RasteplassOppstillingspl 2 småEnde Hornindalsvatnet*Lote *14 NOR *6778]]></description>
      <styleUrl>#icon-503-DB4436</styleUrl>
      <Point>
        <coordinates>
          6.095138,61.913195,0
        </coordinates>
      </Point>
    </Placemark>
    <Placemark>
      <name>Rasteplass 1147 Kongsvik</name>
      <description>FV60 Sogn og FjordLiten rasteplassoppstillingspl. 3 små1 stor tot 1200m2Fast dekke*Holmøyane *14 NOR *6779</description>
      <styleUrl>#icon-503-DB4436</styleUrl>
      <Point>
        <coordinates>
          6.469442,61.945915,0
        </coordinates>
      </Point>
    </Placemark>
    <Placemark>
      <name>Rasteplass 1148 Kjøs</name>
      <description>FV60 Sogn og FjordLiten rasteplassOppstillingsplass 4 små400m2Fast dekke*Holmøyane *14 NOR *6779</description>
      <styleUrl>#icon-503-DB4436</styleUrl>
      <Point>
        <coordinates>
          6.473474,61.944787,0
        </coordinates>
      </Point>
    </Placemark>
    <Placemark>
      <name>Rasteplass 1149 Kjøs bru</name>
      <description>RV15 Sogn og FjordLiten rasteplassOppstillingspl 5 småFast dekke*Holmøyane *14 NOR *6779</description>
      <styleUrl>#icon-503-DB4436</styleUrl>
      <Point>
        <coordinates>
          6.492834,61.939073,0
        </coordinates>
      </Point>
    </Placemark>
    <Placemark>
      <name>Rasteplass 115</name>
      <description>5961 Brekke Gulen NorWC Nei.*Brekke *14 NOR *5961</description>
      <styleUrl>#icon-503-DB4436</styleUrl>
      <Point>
        <coordinates>
          5.461236,61.019177,0
        </coordinates>
      </Point>
    </Placemark>
    <Placemark>
      <name>Rasteplass 1150 Stolen</name>
      <description>FV613 Sogn og FjordLiten rasteplass*Briksdalsbre *14 NOR *6792</description>
      <styleUrl>#icon-503-DB4436</styleUrl>
      <Point>
        <coordinates>
          6.544711,61.874392,0
        </coordinates>
      </Point>
    </Placemark>
    <Placemark>
      <name>Rasteplass 1151 Hildesneset</name>
      <description>FV 60 Sogn og FjordLiten rasteplassOppstpl. 2 små250m2*Briksdalsbre *14 NOR *6792</description>
      <styleUrl>#icon-503-DB4436</styleUrl>
      <Point>
        <coordinates>
          6.580516,61.865402,0
        </coordinates>
      </Point>
    </Placemark>
    <Placemark>
      <name>Rasteplass 1152 Kallen</name>
      <description>FV 60 Sogn og FjordLiten RasteplassOppstpl. 2 små130m2Grus*Innvik *14 NOR *6793</description>
      <styleUrl>#icon-503-DB4436</styleUrl>
      <Point>
        <coordinates>
          6.640768,61.873667,0
        </coordinates>
      </Point>
    </Placemark>
    <Placemark>
      <name>Rasteplass 1153 Gloføykja</name>
      <description>FV 616Sogn og FjordLiten Rasteplass.Opstillingspl. 5 små*Rugsund *14 NOR *6734</description>
      <styleUrl>#icon-503-DB4436</styleUrl>
      <Point>
        <coordinates>
          5.257594,61.873589,0
        </coordinates>
      </Point>
    </Placemark>
    <Placemark>
      <name>Rasteplass 1154 Tystigbrekka</name>
      <description>FV258Liten rasreplassoppstillingspl 4 små250m2*Geiranger *15 NOR *6216</description>
      <styleUrl>#icon-503-DB4436</styleUrl>
      <Point>
        <coordinates>
          7.336504,61.952945,0
        </coordinates>
      </Point>
    </Placemark>
    <Placemark>
      <name>Rasteplass 1155 Grasdalen</name>
      <description>RV 15*Geiranger *15 NOR *6216</description>
      <styleUrl>#icon-503-DB4436</styleUrl>
      <Point>
        <coordinates>
          7.314505,61.993701,0
        </coordinates>
      </Point>
    </Placemark>
    <Placemark>
      <name>Rasteplass 1156 Øvstefoss</name>
      <description>*Geiranger *15 NOR *6216</description>
      <styleUrl>#icon-503-DB4436</styleUrl>
      <Point>
        <coordinates>
          7.25982,61.93683,0
        </coordinates>
      </Point>
    </Placemark>
    <Placemark>
      <name>Rasteplass 1157</name>
      <description>*Olden *14 NOR *6788</description>
      <styleUrl>#icon-503-DB4436</styleUrl>
      <Point>
        <coordinates>
          6.784539,61.871481,0
        </coordinates>
      </Point>
    </Placemark>
    <Placemark>
      <name>Rasteplass 1158 Kleiva</name>
      <description>*Olden *14 NOR *6788</description>
      <styleUrl>#icon-503-DB4436</styleUrl>
      <Point>
        <coordinates>
          6.777475,61.873209,0
        </coordinates>
      </Point>
    </Placemark>
    <Placemark>
      <name>Rasteplass 1159 Nos</name>
      <description>*Blaksæter *14 NOR *6795</description>
      <styleUrl>#icon-503-DB4436</styleUrl>
      <Point>
        <coordinates>
          6.37242,61.85036,0
        </coordinates>
      </Point>
    </Placemark>
    <Placemark>
      <name>Rasteplass 116</name>
      <description>5961 Gulen NorWC Nei*Brekke *14 NOR *5961</description>
      <styleUrl>#icon-503-DB4436</styleUrl>
      <Point>
        <coordinates>
          5.482916,61.046448,0
        </coordinates>
      </Point>
    </Placemark>
    <Placemark>
      <name>Rasteplass 1160 Anda</name>
      <description>*Hestenesøyra *14 NOR *6828</description>
      <styleUrl>#icon-503-DB4436</styleUrl>
      <Point>
        <coordinates>
          6.08293,61.84627,0
        </coordinates>
      </Point>
    </Placemark>
    <Placemark>
      <name>Rasteplass 1161 Utsikt Sandane</name>
      <description>*Breim *14 NOR *6827</description>
      <styleUrl>#icon-503-DB4436</styleUrl>
      <Point>
        <coordinates>
          6.21485,61.78052,0
        </coordinates>
      </Point>
    </Placemark>
    <Placemark>
      <name>Rasteplass 1162 Kvalen</name>
      <description>*Breim *14 NOR *6827</description>
      <styleUrl>#icon-503-DB4436</styleUrl>
      <Point>
        <coordinates>
          6.281477,61.865722,0
        </coordinates>
      </Point>
    </Placemark>
    <Placemark>
      <name>Rasteplass 1163</name>
      <description>*Stryn *14 NOR *6783</description>
      <styleUrl>#icon-503-DB4436</styleUrl>
      <Point>
        <coordinates>
          6.72264,61.90448,0
        </coordinates>
      </Point>
    </Placemark>
    <Placemark>
      <name>Rasteplass 1164 Tjerkleiva</name>
      <description>258*Geiranger *15 NOR *6216</description>
      <styleUrl>#icon-503-DB4436</styleUrl>
      <Point>
        <coordinates>
          7.282907,61.941601,0
        </coordinates>
      </Point>
    </Placemark>
    <Placemark>
      <name>Rasteplass 1165 fessene</name>
      <description>258*Geiranger *15 NOR *6216</description>
      <styleUrl>#icon-503-DB4436</styleUrl>
      <Point>
        <coordinates>
          7.286919,61.943104,0
        </coordinates>
      </Point>
    </Placemark>
    <Placemark>
      <name>Rasteplass 1166 Fosnes</name>
      <description>Jostedalsbreen Nasjonalparksenter*Loen *14 NOR *6789</description>
      <styleUrl>#icon-503-DB4436</styleUrl>
      <Point>
        <coordinates>
          7.049266,61.910382,0
        </coordinates>
      </Point>
    </Placemark>
    <Placemark>
      <name>Rasteplass 1167 Hjelle</name>
      <description>720*Loen *14 NOR *6789</description>
      <styleUrl>#icon-503-DB4436</styleUrl>
      <Point>
        <coordinates>
          7.115581,61.912729,0
        </coordinates>
      </Point>
    </Placemark>
    <Placemark>
      <name>Rasteplass 1168 Reibakken</name>
      <description>*Sør-Audnedal *10 NOR *4520</description>
      <styleUrl>#icon-503-DB4436</styleUrl>
      <Point>
        <coordinates>
          7.373411,58.054277,0
        </coordinates>
      </Point>
    </Placemark>
    <Placemark>
      <name>Rasteplass 1169 Kråkevik</name>
      <description>*Lyngdal *10 NOR *4580</description>
      <styleUrl>#icon-503-DB4436</styleUrl>
      <Point>
        <coordinates>
          7.02153,58.128684,0
        </coordinates>
      </Point>
    </Placemark>
    <Placemark>
      <name>Rasteplass 117 Leversund</name>
      <description>RV 575960 Gulen NorWC Nei*Dalsøyra *14 NOR *5960</description>
      <styleUrl>#icon-503-DB4436</styleUrl>
      <Point>
        <coordinates>
          5.180108,60.966729,0
        </coordinates>
      </Point>
    </Placemark>
    <Placemark>
      <name>Rasteplass 1170 Jentefjellet</name>
      <description>43*Farsund *10 NOR *4551</description>
      <styleUrl>#icon-503-DB4436</styleUrl>
      <Point>
        <coordinates>
          6.82223,58.099037,0
        </coordinates>
      </Point>
    </Placemark>
    <Placemark>
      <name>Rasteplass 1170 Sellegrod</name>
      <description>Vei*Farsund *10 NOR *4551</description>
      <styleUrl>#icon-503-DB4436</styleUrl>
      <Point>
        <coordinates>
          6.789879,58.116317,0
        </coordinates>
      </Point>
    </Placemark>
    <Placemark>
      <name>Rasteplass 1172 Listelia</name>
      <description>652*Vanse *10 NOR *4560</description>
      <styleUrl>#icon-503-DB4436</styleUrl>
      <Point>
        <coordinates>
          6.737144,58.182254,0
        </coordinates>
      </Point>
    </Placemark>
    <Placemark>
      <name>Rasteplass 1173 Læga</name>
      <description>908*Flekkefjord *10 NOR *4400</description>
      <styleUrl>#icon-503-DB4436</styleUrl>
      <Point>
        <coordinates>
          6.554397,58.232471,0
        </coordinates>
      </Point>
    </Placemark>
    <Placemark>
      <name>Rasteplass 1174 Åsnes</name>
      <description>44*Flekkefjord *10 NOR *4400</description>
      <styleUrl>#icon-503-DB4436</styleUrl>
      <Point>
        <coordinates>
          6.481392,58.280718,0
        </coordinates>
      </Point>
    </Placemark>
    <Placemark>
      <name>Rasteplass 1175 Logsmyra</name>
      <description>44*Flekkefjord *10 NOR *4400</description>
      <styleUrl>#icon-503-DB4436</styleUrl>
      <Point>
        <coordinates>
          6.424507,58.305095,0
        </coordinates>
      </Point>
    </Placemark>
    <Placemark>
      <name>Rasteplass 1176 Jøssingfjord</name>
      <description>44*Moi *11 NOR *4460</description>
      <styleUrl>#icon-503-DB4436</styleUrl>
      <Point>
        <coordinates>
          6.351241,58.33079,0
        </coordinates>
      </Point>
    </Placemark>
    <Placemark>
      <name>Rasteplass 1177 Saurdal</name>
      <description>44*Egersund *11 NOR *4379</description>
      <styleUrl>#icon-503-DB4436</styleUrl>
      <Point>
        <coordinates>
          6.25084,58.37168,0
        </coordinates>
      </Point>
    </Placemark>
    <Placemark>
      <name>Rasteplass 1178 Mong</name>
      <description>Sokndalsveien*Egersund *11 NOR *4379</description>
      <styleUrl>#icon-503-DB4436</styleUrl>
      <Point>
        <coordinates>
          6.114728,58.379806,0
        </coordinates>
      </Point>
    </Placemark>
    <Placemark>
      <name>Rasteplass 1179 Stapnes</name>
      <description>Sokndalsveien*Egersund *11 NOR *4370</description>
      <styleUrl>#icon-503-DB4436</styleUrl>
      <Point>
        <coordinates>
          6.056918,58.383204,0
        </coordinates>
      </Point>
    </Placemark>
    <Placemark>
      <name>Rasteplass 118</name>
      <description>RV 570 5960 Gulen NorWC NeiLandelig,skog, beiteområde. Rasteplass som brei vegskulder.Grus/gress dekke.*Mongstad *12 NOR *5954</description>
      <styleUrl>#icon-503-DB4436</styleUrl>
      <Point>
        <coordinates>
          5.120058,60.85001,0
        </coordinates>
      </Point>
    </Placemark>
    <Placemark>
      <name>Rasteplass 1180 Lygre</name>
      <description>Sokndalsveien 210*Egersund *11 NOR *4379</description>
      <styleUrl>#icon-503-DB4436</styleUrl>
      <Point>
        <coordinates>
          6.018201,58.424353,0
        </coordinates>
      </Point>
    </Placemark>
    <Placemark>
      <name>Rasteplass 1181 Stokkatjern</name>
      <description>*Egersund *11 NOR *4379</description>
      <styleUrl>#icon-503-DB4436</styleUrl>
      <Point>
        <coordinates>
          6.035762,58.49121,0
        </coordinates>
      </Point>
    </Placemark>
    <Placemark>
      <name>Rasteplass 1182 Krossmoen</name>
      <description>*Helleland *11 NOR *4376</description>
      <styleUrl>#icon-503-DB4436</styleUrl>
      <Point>
        <coordinates>
          6.092304,58.52326,0
        </coordinates>
      </Point>
    </Placemark>
    <Placemark>
      <name>Rasteplass 1183 Moi Vika</name>
      <description>44*Hellvik *11 NOR *4375</description>
      <styleUrl>#icon-503-DB4436</styleUrl>
      <Point>
        <coordinates>
          5.845931,58.48344,0
        </coordinates>
      </Point>
    </Placemark>
    <Placemark>
      <name>Rasteplass 1184</name>
      <description>44*Sirevåg *11 NOR *4364</description>
      <styleUrl>#icon-503-DB4436</styleUrl>
      <Point>
        <coordinates>
          5.813376,58.492121,0
        </coordinates>
      </Point>
    </Placemark>
    <Placemark>
      <name>Rasteplass 1185 Svingen</name>
      <description>44*Sirevåg *11 NOR *4364</description>
      <styleUrl>#icon-503-DB4436</styleUrl>
      <Point>
        <coordinates>
          5.805871,58.512949,0
        </coordinates>
      </Point>
    </Placemark>
    <Placemark>
      <name>Rasteplass 1186 Varden</name>
      <description>44*Brusand *11 NOR *4363</description>
      <styleUrl>#icon-503-DB4436</styleUrl>
      <Point>
        <coordinates>
          5.773518,58.532128,0
        </coordinates>
      </Point>
    </Placemark>
    <Placemark>
      <name>Rasteplass 1187 Hårr</name>
      <description>44*Vigrestad *11 NOR *4362</description>
      <styleUrl>#icon-503-DB4436</styleUrl>
      <Point>
        <coordinates>
          5.657887,58.559316,10
        </coordinates>
      </Point>
    </Placemark>
    <Placemark>
      <name>Rasteplass 1188 Randaberg FK</name>
      <description>MekjarvikveienFergekai*Bru *11 NOR *4158</description>
      <styleUrl>#icon-503-DB4436</styleUrl>
      <Point>
        <coordinates>
          5.613209,59.023375,0
        </coordinates>
      </Point>
    </Placemark>
    <Placemark>
      <name>Rasteplass 1189 Jernholmen FK</name>
      <description>449*Stavanger *11 NOR *4035</description>
      <styleUrl>#icon-503-DB4436</styleUrl>
      <Point>
        <coordinates>
          5.737782,58.972291,0
        </coordinates>
      </Point>
    </Placemark>
    <Placemark>
      <name>Rasteplass 119 FK</name>
      <description>RV 57 5960 Gulen NorFerge kai*Mongstad *12 NOR *5954</description>
      <styleUrl>#icon-503-DB4436</styleUrl>
      <Point>
        <coordinates>
          5.063367,60.856919,0
        </coordinates>
      </Point>
    </Placemark>
    <Placemark>
      <name>Rasteplass 1190 Fiskepiren FK</name>
      <description>Bekhuskaien*Stavanger *11 NOR *4035</description>
      <styleUrl>#icon-503-DB4436</styleUrl>
      <Point>
        <coordinates>
          5.74014,58.97216,0
        </coordinates>
      </Point>
    </Placemark>
    <Placemark>
      <name>Rasteplass 1191</name>
      <description>Daleveien*Sandnes *11 NOR *4326</description>
      <styleUrl>#icon-503-DB4436</styleUrl>
      <Point>
        <coordinates>
          5.764332,58.873967,0
        </coordinates>
      </Point>
    </Placemark>
    <Placemark>
      <name>Rasteplass 1192 Toberg</name>
      <description>45*Oltedal *11 NOR *4333</description>
      <styleUrl>#icon-503-DB4436</styleUrl>
      <Point>
        <coordinates>
          6.00832,58.817196,0
        </coordinates>
      </Point>
    </Placemark>
    <Placemark>
      <name>Rasteplass 1193 Lauvvik FK</name>
      <description>13Fergekai*Oltedal *11 NOR *4333</description>
      <styleUrl>#icon-503-DB4436</styleUrl>
      <Point>
        <coordinates>
          6.055339,58.894215,0
        </coordinates>
      </Point>
    </Placemark>
    <Placemark>
      <name>Rasteplass 1194</name>
      <description>E39*Ålgård *11 NOR *4330</description>
      <styleUrl>#icon-503-DB4436</styleUrl>
      <Point>
        <coordinates>
          5.98194,58.709068,0
        </coordinates>
      </Point>
    </Placemark>
    <Placemark>
      <name>Rasteplass 1195 Søyland</name>
      <description>E39*Vikeså *11 NOR *4389</description>
      <styleUrl>#icon-503-DB4436</styleUrl>
      <Point>
        <coordinates>
          5.981218,58.67744,0
        </coordinates>
      </Point>
    </Placemark>
    <Placemark>
      <name>Rasteplass 1196 Gloppedalen</name>
      <description>*Dirdal *11 NOR *4335</description>
      <styleUrl>#icon-503-DB4436</styleUrl>
      <Point>
        <coordinates>
          6.278299,58.767366,0
        </coordinates>
      </Point>
    </Placemark>
    <Placemark>
      <name>Rasteplass 1197 Motland</name>
      <description>45*Dirdal *11 NOR *4335</description>
      <styleUrl>#icon-503-DB4436</styleUrl>
      <Point>
        <coordinates>
          6.3835,58.809496,0
        </coordinates>
      </Point>
    </Placemark>
    <Placemark>
      <name>Rasteplass 1198 Austrundalen</name>
      <description>85*Vikeså *11 NOR *4389</description>
      <styleUrl>#icon-503-DB4436</styleUrl>
      <Point>
        <coordinates>
          6.269913,58.694843,0
        </coordinates>
      </Point>
    </Placemark>
    <Placemark>
      <name>Rasteplass 1199</name>
      <description>*Vikeså *11 NOR *4389</description>
      <styleUrl>#icon-503-DB4436</styleUrl>
      <Point>
        <coordinates>
          6.091042,58.62569,0
        </coordinates>
      </Point>
    </Placemark>
    <Placemark>
      <name>Rasteplass 12</name>
      <description>E18 4846 Arendal NorInformasjonWC Nei.Park. afaltert vegskulder, R.plass nedenfor.*Arendal *09 NOR *4803</description>
      <styleUrl>#icon-503-DB4436</styleUrl>
      <Point>
        <coordinates>
          8.766918,58.493486,0
        </coordinates>
      </Point>
    </Placemark>
    <Placemark>
      <name>Rasteplass 120</name>
      <description>8450, Stokmarknes, Hadsel, Nor*Stokmarknes *18 NOR *8450</description>
      <styleUrl>#icon-503-DB4436</styleUrl>
      <Point>
        <coordinates>
          14.962791,68.569089,0
        </coordinates>
      </Point>
    </Placemark>
    <Placemark>
      <name>Rasteplass 1200 Moi</name>
      <description>*Moi *11 NOR *4460</description>
      <styleUrl>#icon-503-DB4436</styleUrl>
      <Point>
        <coordinates>
          6.556201,58.455816,0
        </coordinates>
      </Point>
    </Placemark>
    <Placemark>
      <name>Rasteplass 1201</name>
      <description>42*Gyland *10 NOR *4436</description>
      <styleUrl>#icon-503-DB4436</styleUrl>
      <Point>
        <coordinates>
          6.774843,58.491749,0
        </coordinates>
      </Point>
    </Placemark>
    <Placemark>
      <name>Rasteplass 1202</name>
      <description>42*Tonstad *10 NOR *4441</description>
      <styleUrl>#icon-503-DB4436</styleUrl>
      <Point>
        <coordinates>
          6.71196,58.616052,0
        </coordinates>
      </Point>
    </Placemark>
    <Placemark>
      <name>Rasteplass 1203</name>
      <description>901*Tonstad *10 NOR *4441</description>
      <styleUrl>#icon-503-DB4436</styleUrl>
      <Point>
        <coordinates>
          6.661594,58.619422,0
        </coordinates>
      </Point>
    </Placemark>
    <Placemark>
      <name>Rasteplass 1204</name>
      <description>42*Tonstad *10 NOR *4441</description>
      <styleUrl>#icon-503-DB4436</styleUrl>
      <Point>
        <coordinates>
          6.580197,58.656064,0
        </coordinates>
      </Point>
    </Placemark>
    <Placemark>
      <name>Rasteplass 1204 Haddelandsheia</name>
      <description>*Eiken *10 NOR *4596</description>
      <styleUrl>#icon-503-DB4436</styleUrl>
      <Point>
        <coordinates>
          7.090281,58.501717,0
        </coordinates>
      </Point>
    </Placemark>
    <Placemark>
      <name>Rasteplass 1205</name>
      <description>465*Kvinlog *10 NOR *4473</description>
      <styleUrl>#icon-503-DB4436</styleUrl>
      <Point>
        <coordinates>
          6.908269,58.613881,0
        </coordinates>
      </Point>
    </Placemark>
    <Placemark>
      <name>Rasteplass 1206 Speilen</name>
      <description>465*Feda *10 NOR *4485</description>
      <styleUrl>#icon-503-DB4436</styleUrl>
      <Point>
        <coordinates>
          6.849883,58.265734,0
        </coordinates>
      </Point>
    </Placemark>
    <Placemark>
      <name>Rasteplass 1207 Rørvik</name>
      <description>Vei*Feda *10 NOR *4485</description>
      <styleUrl>#icon-503-DB4436</styleUrl>
      <Point>
        <coordinates>
          6.833193,58.245212,0
        </coordinates>
      </Point>
    </Placemark>
    <Placemark>
      <name>Rasteplass 1208 Utsikten</name>
      <description>461*Kvinesdal *10 NOR *4480</description>
      <styleUrl>#icon-503-DB4436</styleUrl>
      <Point>
        <coordinates>
          6.968939,58.306141,0
        </coordinates>
      </Point>
    </Placemark>
    <Placemark>
      <name>Rasteplass 1209 Øvre Føreland</name>
      <description>461*Kvinesdal *10 NOR *4480</description>
      <styleUrl>#icon-503-DB4436</styleUrl>
      <Point>
        <coordinates>
          7.015331,58.270753,0
        </coordinates>
      </Point>
    </Placemark>
    <Placemark>
      <name>Rasteplass 121</name>
      <description>E396680, Halsa, Halsa, Nor*Vågland *15 NOR *6683</description>
      <styleUrl>#icon-503-DB4436</styleUrl>
      <Point>
        <coordinates>
          8.288283,63.072209,0
        </coordinates>
      </Point>
    </Placemark>
    <Placemark>
      <name>Rasteplass 1210 Kvåsveien</name>
      <description>461*Øyestranda *10 NOR *4484</description>
      <styleUrl>#icon-503-DB4436</styleUrl>
      <Point>
        <coordinates>
          7.023142,58.256703,0
        </coordinates>
      </Point>
    </Placemark>
    <Placemark>
      <name>Rasteplass 1211 Snartemo</name>
      <description>43*Snartemo *10 NOR *4590</description>
      <styleUrl>#icon-503-DB4436</styleUrl>
      <Point>
        <coordinates>
          7.207875,58.332902,0
        </coordinates>
      </Point>
    </Placemark>
    <Placemark>
      <name>Rasteplass 1212 Kvåsfossen</name>
      <description>43 og Vei*Snartemo *10 NOR *4590</description>
      <styleUrl>#icon-503-DB4436</styleUrl>
      <Point>
        <coordinates>
          7.190552,58.264747,0
        </coordinates>
      </Point>
    </Placemark>
    <Placemark>
      <name>Rasteplass 1213 Håberg</name>
      <description>Vei*Eiken *10 NOR *4596</description>
      <styleUrl>#icon-503-DB4436</styleUrl>
      <Point>
        <coordinates>
          7.215188,58.447988,0
        </coordinates>
      </Point>
    </Placemark>
    <Placemark>
      <name>Rasteplass 1215 Håland</name>
      <description>*Byremo *10 NOR *4529</description>
      <styleUrl>#icon-503-DB4436</styleUrl>
      <Point>
        <coordinates>
          7.407432,58.468039,0
        </coordinates>
      </Point>
    </Placemark>
    <Placemark>
      <name>Rasteplass 1216 Mjåland</name>
      <description>455*Byremo *10 NOR *4529</description>
      <styleUrl>#icon-503-DB4436</styleUrl>
      <Point>
        <coordinates>
          7.431907,58.510342,0
        </coordinates>
      </Point>
    </Placemark>
    <Placemark>
      <name>Rasteplass 1217 Ørevatn</name>
      <description>455*Åseral *10 NOR *4540</description>
      <styleUrl>#icon-503-DB4436</styleUrl>
      <Point>
        <coordinates>
          7.414527,58.593987,0
        </coordinates>
      </Point>
    </Placemark>
    <Placemark>
      <name>Rasteplass 1218 Skogredet</name>
      <description>42*Byremo *10 NOR *4529</description>
      <styleUrl>#icon-503-DB4436</styleUrl>
      <Point>
        <coordinates>
          7.524062,58.503091,0
        </coordinates>
      </Point>
    </Placemark>
    <Placemark>
      <name>Rasteplass 1219 Fossheim</name>
      <description>42*Byremo *10 NOR *4529</description>
      <styleUrl>#icon-503-DB4436</styleUrl>
      <Point>
        <coordinates>
          7.56643,58.510189,0
        </coordinates>
      </Point>
    </Placemark>
    <Placemark>
      <name>Rasteplass 122 Valsøybrua</name>
      <description>6687 Halsa Nor*Valsøyfjord *15 NOR *6687</description>
      <styleUrl>#icon-503-DB4436</styleUrl>
      <Point>
        <coordinates>
          8.549259,63.144511,0
        </coordinates>
      </Point>
    </Placemark>
    <Placemark>
      <name>Rasteplass 1220 Kleveland Bru</name>
      <description>461*Marnardal *10 NOR *4534</description>
      <styleUrl>#icon-503-DB4436</styleUrl>
      <Point>
        <coordinates>
          7.519073,58.254552,0
        </coordinates>
      </Point>
    </Placemark>
    <Placemark>
      <name>Rasteplass 1221 Synsodden v Mannflåvatnet</name>
      <description>*Marnardal *10 NOR *4534</description>
      <styleUrl>#icon-503-DB4436</styleUrl>
      <Point>
        <coordinates>
          7.525995,58.308469,0
        </coordinates>
      </Point>
    </Placemark>
    <Placemark>
      <name>Rasteplass 1222 Krokevatnet</name>
      <description>459 og Uasfaltert vei*Øyslebø *10 NOR *4532</description>
      <styleUrl>#icon-503-DB4436</styleUrl>
      <Point>
        <coordinates>
          7.589235,58.096862,0
        </coordinates>
      </Point>
    </Placemark>
    <Placemark>
      <name>Rasteplass 1223 Fidjane</name>
      <description>E39*Kristiansand S *10 NOR *4623</description>
      <styleUrl>#icon-503-DB4436</styleUrl>
      <Point>
        <coordinates>
          7.910744,58.144475,98
        </coordinates>
      </Point>
    </Placemark>
    <Placemark>
      <name>Rasteplass 1224 Stemmen</name>
      <description>*Mosby *10 NOR *4619</description>
      <styleUrl>#icon-503-DB4436</styleUrl>
      <Point>
        <coordinates>
          7.863437,58.251352,0
        </coordinates>
      </Point>
    </Placemark>
    <Placemark>
      <name>Rasteplass 1225 Eikeland</name>
      <description>*Iveland *09 NOR *4724</description>
      <styleUrl>#icon-503-DB4436</styleUrl>
      <Point>
        <coordinates>
          7.789013,58.364462,0
        </coordinates>
      </Point>
    </Placemark>
    <Placemark>
      <name>Rasteplass 1226 Kilefjord</name>
      <description>Kile*Iveland *09 NOR *4724</description>
      <styleUrl>#icon-503-DB4436</styleUrl>
      <Point>
        <coordinates>
          7.770954,58.413703,0
        </coordinates>
      </Point>
    </Placemark>
    <Placemark>
      <name>Rasteplass 1227 Voilan</name>
      <description>9*Hornnes *09 NOR *4737</description>
      <styleUrl>#icon-503-DB4436</styleUrl>
      <Point>
        <coordinates>
          7.775613,58.548283,0
        </coordinates>
      </Point>
    </Placemark>
    <Placemark>
      <name>Rasteplass 1228 Syrtveitfossen</name>
      <description>9*Byglandsfjord *09 NOR *4741</description>
      <styleUrl>#icon-503-DB4436</styleUrl>
      <Point>
        <coordinates>
          7.811321,58.640492,200
        </coordinates>
      </Point>
    </Placemark>
    <Placemark>
      <name>Rasteplass 1229 Vassend</name>
      <description>Vannkontur*Byglandsfjord *09 NOR *4741</description>
      <styleUrl>#icon-503-DB4436</styleUrl>
      <Point>
        <coordinates>
          7.817813,58.655212,0
        </coordinates>
      </Point>
    </Placemark>
    <Placemark>
      <name>Rasteplass 123 Valsøya</name>
      <description>6687 Halsa Nor*Valsøyfjord *15 NOR *6687</description>
      <styleUrl>#icon-503-DB4436</styleUrl>
      <Point>
        <coordinates>
          8.534608,63.142424,0
        </coordinates>
      </Point>
    </Placemark>
    <Placemark>
      <name>Rasteplass 1230 Storestraum</name>
      <description>9*Grendi *09 NOR *4742</description>
      <styleUrl>#icon-503-DB4436</styleUrl>
      <Point>
        <coordinates>
          7.840233,58.776019,0
        </coordinates>
      </Point>
    </Placemark>
    <Placemark>
      <name>Rasteplass 1231 Lyngnes</name>
      <description>*Bygland *09 NOR *4745</description>
      <styleUrl>#icon-503-DB4436</styleUrl>
      <Point>
        <coordinates>
          7.790563,58.807149,0
        </coordinates>
      </Point>
    </Placemark>
    <Placemark>
      <name>Rasteplass 1232 Storestraum</name>
      <description>*Bygland *09 NOR *4745</description>
      <styleUrl>#icon-503-DB4436</styleUrl>
      <Point>
        <coordinates>
          7.748621,58.849648,0
        </coordinates>
      </Point>
    </Placemark>
    <Placemark>
      <name>Rasteplass 1233 Reiårsfossen</name>
      <description>*Bygland *09 NOR *4745</description>
      <styleUrl>#icon-503-DB4436</styleUrl>
      <Point>
        <coordinates>
          7.687287,58.94446,0
        </coordinates>
      </Point>
    </Placemark>
    <Placemark>
      <name>Rasteplass 1234 Hækni</name>
      <description>*Rysstad *09 NOR *4748</description>
      <styleUrl>#icon-503-DB4436</styleUrl>
      <Point>
        <coordinates>
          7.552952,59.018624,0
        </coordinates>
      </Point>
    </Placemark>
    <Placemark>
      <name>Rasteplass 1235 Øyvassbu</name>
      <description>Vei og Merket Sti*Rysstad *09 NOR *4748</description>
      <styleUrl>#icon-503-DB4436</styleUrl>
      <Point>
        <coordinates>
          7.244797,59.030142,999.1
        </coordinates>
      </Point>
    </Placemark>
    <Placemark>
      <name>Rasteplass 1236 Roskreppfjorden</name>
      <description>Vei*Rysstad *09 NOR *4748</description>
      <styleUrl>#icon-503-DB4436</styleUrl>
      <Point>
        <coordinates>
          7.164481,59.042026,901
        </coordinates>
      </Point>
    </Placemark>
    <Placemark>
      <name>Rasteplass 1237</name>
      <description>Smug*Rysstad *09 NOR *4748</description>
      <styleUrl>#icon-503-DB4436</styleUrl>
      <Point>
        <coordinates>
          7.135511,59.034221,0
        </coordinates>
      </Point>
    </Placemark>
    <Placemark>
      <name>Rasteplass 1238</name>
      <description>Vei*Rysstad *09 NOR *4748</description>
      <styleUrl>#icon-503-DB4436</styleUrl>
      <Point>
        <coordinates>
          7.106859,59.026155,960
        </coordinates>
      </Point>
    </Placemark>
    <Placemark>
      <name>Rasteplass 1239</name>
      <description>987*Lysebotn *11 NOR *4127</description>
      <styleUrl>#icon-503-DB4436</styleUrl>
      <Point>
        <coordinates>
          6.976426,59.021773,0
        </coordinates>
      </Point>
    </Placemark>
    <Placemark>
      <name>Rasteplass 124</name>
      <description>8260, Hamarøy, Hamarøy, Nor*Mørsvikbotn *18 NOR *8266</description>
      <styleUrl>#icon-503-DB4436</styleUrl>
      <Point>
        <coordinates>
          15.969057,67.783284,0
        </coordinates>
      </Point>
    </Placemark>
    <Placemark>
      <name>Rasteplass 1240</name>
      <description>500*Lysebotn *11 NOR *4127</description>
      <styleUrl>#icon-503-DB4436</styleUrl>
      <Point>
        <coordinates>
          6.656899,59.049898,0
        </coordinates>
      </Point>
    </Placemark>
    <Placemark>
      <name>Rasteplass 1241</name>
      <description>*Fløyrli *11 NOR *4128</description>
      <styleUrl>#icon-503-DB4436</styleUrl>
      <Point>
        <coordinates>
          6.395855,59.039115,0
        </coordinates>
      </Point>
    </Placemark>
    <Placemark>
      <name>Rasteplass 1242 Notvik</name>
      <description>*Jørpeland *11 NOR *4100</description>
      <styleUrl>#icon-503-DB4436</styleUrl>
      <Point>
        <coordinates>
          6.069651,59.005712,0
        </coordinates>
      </Point>
    </Placemark>
    <Placemark>
      <name>Rasteplass 1243 Lysefjordsenter</name>
      <description>13*Oltedal *11 NOR *4333</description>
      <styleUrl>#icon-503-DB4436</styleUrl>
      <Point>
        <coordinates>
          6.077177,58.911176,10
        </coordinates>
      </Point>
    </Placemark>
    <Placemark>
      <name>Rasteplass 1244 Oanes FK</name>
      <description>13 og VeiFergekaiområde*Oltedal *11 NOR *4333</description>
      <styleUrl>#icon-503-DB4436</styleUrl>
      <Point>
        <coordinates>
          6.07501,58.906202,5
        </coordinates>
      </Point>
    </Placemark>
    <Placemark>
      <name>Rasteplass 1245</name>
      <description>*Mykland *09 NOR *4832</description>
      <styleUrl>#icon-503-DB4436</styleUrl>
      <Point>
        <coordinates>
          8.078893,58.437879,0
        </coordinates>
      </Point>
    </Placemark>
    <Placemark>
      <name>Rasteplass 1246</name>
      <description>*Engesland *09 NOR *4768</description>
      <styleUrl>#icon-503-DB4436</styleUrl>
      <Point>
        <coordinates>
          8.155906,58.579481,0
        </coordinates>
      </Point>
    </Placemark>
    <Placemark>
      <name>Rasteplass 1247</name>
      <description>*Herefoss *09 NOR *4766</description>
      <styleUrl>#icon-503-DB4436</styleUrl>
      <Point>
        <coordinates>
          8.327705,58.454119,0
        </coordinates>
      </Point>
    </Placemark>
    <Placemark>
      <name>Rasteplass 1248 Hauglandsfossen</name>
      <description>*Hynnekleiv *09 NOR *4830</description>
      <styleUrl>#icon-503-DB4436</styleUrl>
      <Point>
        <coordinates>
          8.404079,58.604528,0
        </coordinates>
      </Point>
    </Placemark>
    <Placemark>
      <name>Rasteplass 1249</name>
      <description>*Mjåvatn *09 NOR *4828</description>
      <styleUrl>#icon-503-DB4436</styleUrl>
      <Point>
        <coordinates>
          8.481856,58.549506,0
        </coordinates>
      </Point>
    </Placemark>
    <Placemark>
      <name>Rasteplass 125 Hemnes</name>
      <description>8646, Hemnes*Korgen *18 NOR *8646</description>
      <styleUrl>#icon-503-DB4436</styleUrl>
      <Point>
        <coordinates>
          13.752648,66.070509,0
        </coordinates>
      </Point>
    </Placemark>
    <Placemark>
      <name>Rasteplass 1250</name>
      <description>*Frolands Verk *09 NOR *4827</description>
      <styleUrl>#icon-503-DB4436</styleUrl>
      <Point>
        <coordinates>
          8.55214,58.513847,0
        </coordinates>
      </Point>
    </Placemark>
    <Placemark>
      <name>Rasteplass 1251</name>
      <description>*Hynnekleiv *09 NOR *4830</description>
      <styleUrl>#icon-503-DB4436</styleUrl>
      <Point>
        <coordinates>
          8.391426,58.657244,0
        </coordinates>
      </Point>
    </Placemark>
    <Placemark>
      <name>Rasteplass 1252</name>
      <description>*Dølemo *09 NOR *4869</description>
      <styleUrl>#icon-503-DB4436</styleUrl>
      <Point>
        <coordinates>
          8.363992,58.692161,0
        </coordinates>
      </Point>
    </Placemark>
    <Placemark>
      <name>Rasteplass 1253</name>
      <description>*Åmli *09 NOR *4865</description>
      <styleUrl>#icon-503-DB4436</styleUrl>
      <Point>
        <coordinates>
          8.516899,58.735289,0
        </coordinates>
      </Point>
    </Placemark>
    <Placemark>
      <name>Rasteplass 1254</name>
      <description>*Vegårshei *09 NOR *4985</description>
      <styleUrl>#icon-503-DB4436</styleUrl>
      <Point>
        <coordinates>
          8.813555,58.78459,0
        </coordinates>
      </Point>
    </Placemark>
    <Placemark>
      <name>Rasteplass 1255</name>
      <description>75*Vestre Sandøya *09 NOR *4915</description>
      <styleUrl>#icon-503-DB4436</styleUrl>
      <Point>
        <coordinates>
          9.061961,58.627968,0
        </coordinates>
      </Point>
    </Placemark>
    <Placemark>
      <name>Rasteplass 1256</name>
      <description>*Arendal *09 NOR *4847</description>
      <styleUrl>#icon-503-DB4436</styleUrl>
      <Point>
        <coordinates>
          8.77288,58.502599,0
        </coordinates>
      </Point>
    </Placemark>
    <Placemark>
      <name>Rasteplass 1257</name>
      <description>78*Søndeled *09 NOR *4990</description>
      <styleUrl>#icon-503-DB4436</styleUrl>
      <Point>
        <coordinates>
          9.092273,58.803502,0
        </coordinates>
      </Point>
    </Placemark>
    <Placemark>
      <name>Rasteplass 1258</name>
      <description>*Drangedal *08 NOR *3750</description>
      <styleUrl>#icon-503-DB4436</styleUrl>
      <Point>
        <coordinates>
          9.15766,59.042199,0
        </coordinates>
      </Point>
    </Placemark>
    <Placemark>
      <name>Rasteplass 1259</name>
      <description>38*Drangedal *08 NOR *3750</description>
      <styleUrl>#icon-503-DB4436</styleUrl>
      <Point>
        <coordinates>
          8.94691,59.096396,0
        </coordinates>
      </Point>
    </Placemark>
    <Placemark>
      <name>Rasteplass 126 Sjøforsen</name>
      <description>8646, Hemnes, Hemnes, Nor*Korgen *18 NOR *8646</description>
      <styleUrl>#icon-503-DB4436</styleUrl>
      <Point>
        <coordinates>
          13.701849,66.054594,0
        </coordinates>
      </Point>
    </Placemark>
    <Placemark>
      <name>Rasteplass 1260</name>
      <description>38*Drangedal *08 NOR *3750</description>
      <styleUrl>#icon-503-DB4436</styleUrl>
      <Point>
        <coordinates>
          9.070804,59.068817,0
        </coordinates>
      </Point>
    </Placemark>
    <Placemark>
      <name>Rasteplass 1261</name>
      <description>*Drangedal *08 NOR *3750</description>
      <styleUrl>#icon-503-DB4436</styleUrl>
      <Point>
        <coordinates>
          8.82521,59.077452,0
        </coordinates>
      </Point>
    </Placemark>
    <Placemark>
      <name>Rasteplass 1262</name>
      <description>38 og Smug*Nissedal *08 NOR *3854</description>
      <styleUrl>#icon-503-DB4436</styleUrl>
      <Point>
        <coordinates>
          8.771467,59.216995,0
        </coordinates>
      </Point>
    </Placemark>
    <Placemark>
      <name>Rasteplass 1263</name>
      <description>*Vrådal *08 NOR *3853</description>
      <styleUrl>#icon-503-DB4436</styleUrl>
      <Point>
        <coordinates>
          8.511174,59.351212,0
        </coordinates>
      </Point>
    </Placemark>
    <Placemark>
      <name>Rasteplass 1264</name>
      <description>*Nissedal *08 NOR *3854</description>
      <styleUrl>#icon-503-DB4436</styleUrl>
      <Point>
        <coordinates>
          8.527441,59.281354,0
        </coordinates>
      </Point>
    </Placemark>
    <Placemark>
      <name>Rasteplass 1265</name>
      <description>*Nissedal *08 NOR *3854</description>
      <styleUrl>#icon-503-DB4436</styleUrl>
      <Point>
        <coordinates>
          8.515479,59.247625,0
        </coordinates>
      </Point>
    </Placemark>
    <Placemark>
      <name>Rasteplass 1266</name>
      <description>*Nissedal *08 NOR *3854</description>
      <styleUrl>#icon-503-DB4436</styleUrl>
      <Point>
        <coordinates>
          8.503805,59.159852,0
        </coordinates>
      </Point>
    </Placemark>
    <Placemark>
      <name>Rasteplass 1267</name>
      <description>355*Fyresdal *08 NOR *3870</description>
      <styleUrl>#icon-503-DB4436</styleUrl>
      <Point>
        <coordinates>
          8.183889,59.103307,0
        </coordinates>
      </Point>
    </Placemark>
    <Placemark>
      <name>Rasteplass 1268</name>
      <description>355*Fyresdal *08 NOR *3870</description>
      <styleUrl>#icon-503-DB4436</styleUrl>
      <Point>
        <coordinates>
          8.185751,59.101858,0
        </coordinates>
      </Point>
    </Placemark>
    <Placemark>
      <name>Rasteplass 1269</name>
      <description>355*Fyresdal *08 NOR *3870</description>
      <styleUrl>#icon-503-DB4436</styleUrl>
      <Point>
        <coordinates>
          8.187171,59.100987,0
        </coordinates>
      </Point>
    </Placemark>
    <Placemark>
      <name>Rasteplass 127 Finneidfjord</name>
      <description>8642, Hemnes, Hemnes, Nor*Bjerka *18 NOR *8643</description>
      <styleUrl>#icon-503-DB4436</styleUrl>
      <Point>
        <coordinates>
          13.824354,66.171001,0
        </coordinates>
      </Point>
    </Placemark>
    <Placemark>
      <name>Rasteplass 1270</name>
      <description>3562 stk rasteplass*Kragerø Skjærgårdsrute *08 NOR *3783</description>
      <styleUrl>#icon-503-DB4436</styleUrl>
      <Point>
        <coordinates>
          9.34641,59.070665,0
        </coordinates>
      </Point>
    </Placemark>
    <Placemark>
      <name>Rasteplass 1271</name>
      <description>*Skien *08 NOR *3723</description>
      <styleUrl>#icon-503-DB4436</styleUrl>
      <Point>
        <coordinates>
          9.495468,59.187011,0
        </coordinates>
      </Point>
    </Placemark>
    <Placemark>
      <name>Rasteplass 1272</name>
      <description>Sauheradvegen og Jernvaerksvegen og Smug*Ulefoss *08 NOR *3830</description>
      <styleUrl>#icon-503-DB4436</styleUrl>
      <Point>
        <coordinates>
          9.271603,59.282827,0
        </coordinates>
      </Point>
    </Placemark>
    <Placemark>
      <name>Rasteplass 1273</name>
      <description>Ulefoss*Ulefoss *08 NOR *3830</description>
      <styleUrl>#icon-503-DB4436</styleUrl>
      <Point>
        <coordinates>
          9.253875,59.28103,0
        </coordinates>
      </Point>
    </Placemark>
    <Placemark>
      <name>Rasteplass 1274</name>
      <description>*Bø I Telemark *08 NOR *3800</description>
      <styleUrl>#icon-503-DB4436</styleUrl>
      <Point>
        <coordinates>
          8.915939,59.41205,0
        </coordinates>
      </Point>
    </Placemark>
    <Placemark>
      <name>Rasteplass 1275</name>
      <description>Vei*Seljord *08 NOR *3840</description>
      <styleUrl>#icon-503-DB4436</styleUrl>
      <Point>
        <coordinates>
          8.750762,59.447646,0
        </coordinates>
      </Point>
    </Placemark>
    <Placemark>
      <name>Rasteplass 1276</name>
      <description>*Seljord *08 NOR *3840</description>
      <styleUrl>#icon-503-DB4436</styleUrl>
      <Point>
        <coordinates>
          8.646204,59.50928,0
        </coordinates>
      </Point>
    </Placemark>
    <Placemark>
      <name>Rasteplass 1277</name>
      <description>*Dalen *08 NOR *3880</description>
      <styleUrl>#icon-503-DB4436</styleUrl>
      <Point>
        <coordinates>
          8.014052,59.447708,0
        </coordinates>
      </Point>
    </Placemark>
    <Placemark>
      <name>Rasteplass 1278</name>
      <description>*Dalen *08 NOR *3880</description>
      <styleUrl>#icon-503-DB4436</styleUrl>
      <Point>
        <coordinates>
          7.947231,59.469375,0
        </coordinates>
      </Point>
    </Placemark>
    <Placemark>
      <name>Rasteplass 1279</name>
      <description>*Åmdals Verk *08 NOR *3882</description>
      <styleUrl>#icon-503-DB4436</styleUrl>
      <Point>
        <coordinates>
          7.869429,59.368923,0
        </coordinates>
      </Point>
    </Placemark>
    <Placemark>
      <name>Rasteplass 128</name>
      <description>3560 Hemsedal NorWc.Parkeringsplass og Rasteplass. Stor.*Hemsedal *06 NOR *3560</description>
      <styleUrl>#icon-503-DB4436</styleUrl>
      <Point>
        <coordinates>
          8.743258,60.786432,0
        </coordinates>
      </Point>
    </Placemark>
    <Placemark>
      <name>Rasteplass 1280</name>
      <description>*Åmdals Verk *08 NOR *3882</description>
      <styleUrl>#icon-503-DB4436</styleUrl>
      <Point>
        <coordinates>
          7.764391,59.358911,0
        </coordinates>
      </Point>
    </Placemark>
    <Placemark>
      <name>Rasteplass 1281 Bjørnevatn</name>
      <description>45*Bykle *09 NOR *4754</description>
      <styleUrl>#icon-503-DB4436</styleUrl>
      <Point>
        <coordinates>
          7.515672,59.343455,0
        </coordinates>
      </Point>
    </Placemark>
    <Placemark>
      <name>Rasteplass 1282</name>
      <description>*Valle *09 NOR *4747</description>
      <styleUrl>#icon-503-DB4436</styleUrl>
      <Point>
        <coordinates>
          7.531716,59.23036,0
        </coordinates>
      </Point>
    </Placemark>
    <Placemark>
      <name>Rasteplass 1283 Skarsmo</name>
      <description>*Bykle *09 NOR *4754</description>
      <styleUrl>#icon-503-DB4436</styleUrl>
      <Point>
        <coordinates>
          7.409756,59.408776,0
        </coordinates>
      </Point>
    </Placemark>
    <Placemark>
      <name>Rasteplass 1284 Finnflaten</name>
      <description>*Bykle *09 NOR *4754</description>
      <styleUrl>#icon-503-DB4436</styleUrl>
      <Point>
        <coordinates>
          7.403471,59.42496,0
        </coordinates>
      </Point>
    </Placemark>
    <Placemark>
      <name>Rasteplass 1285 Hoslemohylen</name>
      <description>*Bykle *09 NOR *4754</description>
      <styleUrl>#icon-503-DB4436</styleUrl>
      <Point>
        <coordinates>
          7.405964,59.437303,0
        </coordinates>
      </Point>
    </Placemark>
    <Placemark>
      <name>Rasteplass 1286 Steinsland</name>
      <description>*Bykle *09 NOR *4754</description>
      <styleUrl>#icon-503-DB4436</styleUrl>
      <Point>
        <coordinates>
          7.410661,59.46085,0
        </coordinates>
      </Point>
    </Placemark>
    <Placemark>
      <name>Rasteplass 1287 Badstogdalen</name>
      <description>*Bykle *09 NOR *4754</description>
      <styleUrl>#icon-503-DB4436</styleUrl>
      <Point>
        <coordinates>
          7.40549,59.5201,0
        </coordinates>
      </Point>
    </Placemark>
    <Placemark>
      <name>Rasteplass 1288 Hartevatn</name>
      <description>*Bykle *09 NOR *4754</description>
      <styleUrl>#icon-503-DB4436</styleUrl>
      <Point>
        <coordinates>
          7.358879,59.536505,0
        </coordinates>
      </Point>
    </Placemark>